#----------------------------------------------------------------------------
~VERSION INFORMATION
VERS.            2.0                  :CWLS LOG ASCII STANDARD -VERSION 2.0
WRAP.            NO                   :ONE LINE PER DEPTH STEP
#
#--------------------------------------------------------------------
~WELL INFORMATION
#MNEM .UNIT      DATA                 :DESCRIPTION OF MNEMONIC
#----------      ------------         -------------------------------
STRT  .m         902.1352             :START DEPTH
STEP  .m         0.1524               :STEP DEPTH
STOP  .m         2928.7504            :STOP DEPTH
NULL  .          -999.25              :NULL VALUE
COMP  .                               :COMPANY
WELL  .          22/15-3              :WELL
LOC   .                               :LOCATION - AREA
FLD   .          GBR_UNASSIGNED       :FIELD
CTRY  .          GBR                  :COUNTRY
DATE  .                               :WELL DATE
UWI   .          12000082036501                     :UWI
XWELL .m          614700.99            :X POS
YWELL .m          6383465.707          :Y POS
EDF   .          32.3088646176        :DERRICK FLOOR ELEVATION
#
#----------------------------------------------------------------------------
~CURVE INFORMATION
#MNEM.UNIT                                  : CURVE DESCRIPTION
#----------                                 -------------------------------
DEPT        .m                              : 1      DEPTH
GR          .API                            : 2      GR
V_Clay_all  .fract                          : 3      Volume
#
#----------------------------------------------------------------------------
~A          GR          V_Clay_all  
# ...
2886.3832   29.6326     0.2471      
2886.5356   30.639      0.2641      
2886.688    28.9089     0.2349      
2886.8404   25.7479     0.1815      
2886.9928   23.8565     0.1496      
2887.1452   24.3812     0.1584      
2887.2976   25.9882     0.1856      
2887.45     27.3404     0.2084      
2887.6024   27.4252     0.2098      
2887.7548   27.3726     0.209       
2887.9072   27.7886     0.216       
2888.0596   27.6653     0.2139      
2888.212    26.7104     0.1978      
2888.3644   25.8226     0.1828      
2888.5168   24.9404     0.1679      
2888.6692   23.3391     0.1408      
2888.8216   22.4243     0.1254      
2888.974    22.9329     0.134       
2889.1264   24.7758     0.1651      
2889.2788   25.4774     0.177       
2889.4312   25.672      0.1802      
2889.5836   25.0663     0.17        
2889.736    23.5516     0.1444      
2889.8884   22.455      0.1259      
2890.0408   22.1945     0.1215      
2890.1932   22.3545     0.1242      
2890.3456   21.9494     0.1174      
2890.498    21.4438     0.1088      
2890.6504   21.0759     0.1026      
2890.8028   21.0812     0.1027      
2890.9552   21.6514     0.1123      
2891.1076   21.2597     0.1057      
2891.26     20.8477     0.0988      
2891.4124   22.0017     0.1183      
2891.5648   24.9289     0.1677      
2891.7172   28.8474     0.2339      
2891.8696   32.9992     0.304       
2892.022    38.0467     0.3892      
2892.1744   41.6953     0.4509      
2892.3268   44.1377     0.4921      
2892.4792   44.4139     0.4968      
2892.6316   42.5172     0.4647      
2892.784    39.8953     0.4205      
2892.9364   37.3561     0.3776      
2893.0888   35.8318     0.3518      
2893.2412   34.7904     0.3342      
2893.3936   34.2331     0.3248      
2893.546    33.8957     0.3191      
2893.6984   34.2979     0.3259      
2893.8508   36.7489     0.3673      
2894.0032   41.3189     0.4445      
2894.1556   45.425      0.5138      
2894.308    45.9494     0.5227      
2894.4604   45.3768     0.513       
2894.6128   44.9395     0.5056      
2894.7652   43.0088     0.473       
2894.9176   38.3691     0.3947      
2895.07     31.3213     0.2756      
2895.2224   26.6315     0.1964      
2895.3748   24.6954     0.1637      
2895.5272   23.3361     0.1408      
2895.6796   22.1371     0.1205      
2895.832    22.2672     0.1227      
2895.9844   23.0254     0.1355      
2896.1368   24.0309     0.1525      
2896.2892   24.0156     0.1523      
2896.4416   23.5568     0.1445      
2896.594    23.6926     0.1468      
2896.7464   23.2299     0.139       
2896.8988   23.1697     0.138       
2897.0512   22.5657     0.1278      
2897.2036   22.556      0.1276      
2897.356    23.5139     0.1438      
2897.5084   24.2243     0.1558      
2897.6608   23.9491     0.1511      
2897.8132   22.8429     0.1325      
2897.9656   22.9051     0.1335      
2898.118    23.9501     0.1512      
2898.2704   24.4471     0.1596      
2898.4228   24.1475     0.1545      
2898.5752   24.6462     0.1629      
2898.7276   26.7162     0.1979      
2898.88     27.2661     0.2072      
2899.0324   26.5342     0.1948      
2899.1848   26.1013     0.1875      
2899.3372   27.0599     0.2037      
2899.4896   31.3344     0.2759      
2899.642    41.529      0.448       
2899.7944   50.5226     0.5999      
2899.9468   51.225      0.6118      
2900.0992   43.3071     0.4781      
2900.2516   33.8582     0.3185      
2900.404    26.9072     0.2011      
2900.5564   23.919      0.1506      
2900.7088   24.1065     0.1538      
2900.8612   26.1441     0.1882      
2901.0136   27.6564     0.2138      
2901.166    27.3925     0.2093      
2901.3184   26.874      0.2005      
2901.4708   27.2714     0.2073      
2901.6232   27.8676     0.2173      
2901.7756   27.6534     0.2137      
2901.928    29.3494     0.2423      
2902.0804   36.6303     0.3653      
2902.2328   45.077      0.508       
2902.3852   48.5647     0.5669      
2902.5376   47.9522     0.5565      
2902.69     45.6696     0.518       
2902.8424   43.6777     0.4843      
2902.9948   43.5753     0.4826      
2903.1472   45.6968     0.5184      
2903.2996   47.6163     0.5509      
2903.452    47.556      0.5498      
2903.6044   45.7464     0.5193      
2903.7568   45.6093     0.517       
2903.9092   46.3994     0.5303      
2904.0616   46.2111     0.5271      
2904.214    45.0543     0.5076      
2904.3664   44.2738     0.4944      
2904.5188   44.7181     0.5019      
2904.6712   44.6812     0.5013      
2904.8236   44.8961     0.5049      
2904.976    44.99       0.5065      
2905.1284   44.3908     0.4964      
2905.2808   44.5579     0.4992      
2905.4332   44.6254     0.5003      
2905.5856   44.4601     0.4975      
2905.738    43.17       0.4758      
2905.8904   43.1715     0.4758      
2906.0428   43.9826     0.4895      
2906.1952   44.9255     0.5054      
2906.3476   44.7902     0.5031      
2906.5      44.1433     0.4922      
2906.6524   44.5367     0.4988      
2906.8048   45.1247     0.5088      
2906.9572   44.656      0.5009      
2907.1096   43.1083     0.4747      
2907.262    43.4494     0.4805      
2907.4144   44.8266     0.5037      
2907.5668   45.0663     0.5078      
2907.7192   44.2079     0.4933      
2907.8716   43.454      0.4806      
2908.024    43.5333     0.4819      
2908.1764   44.2426     0.4939      
2908.3288   45.7677     0.5196      
2908.4812   46.7059     0.5355      
2908.6336   46.6911     0.5352      
2908.786    45.8659     0.5213      
2908.9384   45.1847     0.5098      
2909.0908   44.1616     0.4925      
2909.2432   43.8395     0.4871      
2909.3956   44.3627     0.4959      
2909.548    44.4962     0.4982      
2909.7004   44.9239     0.5054      
2909.8528   45.4444     0.5142      
2910.0052   47.1923     0.5437      
2910.1576   48.3916     0.5639      
2910.31     48.3106     0.5626      
2910.4624   47.6149     0.5508      
2910.6148   46.964      0.5398      
2910.7672   47.0461     0.5412      
2910.9196   47.1254     0.5426      
2911.072    47.065      0.5415      
2911.2244   47.1058     0.5422      
2911.3768   47.1233     0.5425      
2911.5292   46.9704     0.5399      
2911.6816   47.2487     0.5446      
2911.834    47.1        0.5421      
2911.9864   50.0195     0.5914      
2912.1388   58.2899     0.7311      
2912.2912   67.1609     0.8809      
2912.4436   70.3552     0.9349      
2912.596    70.3552     0.9349      
2912.7484   70.3552     0.9349      
2912.9008   70.3552     0.9349      
2913.0532   70.3552     0.9349      
2913.2056   70.3552     0.9349      
2913.358    70.3552     0.9349      
2913.5104   70.3552     0.9349      
2913.6628   70.3552     0.9349      
2913.8152   70.3552     0.9349      
2913.9676   70.3552     0.9349      
2914.12     70.3552     0.9349      
2914.2724   70.3552     0.9349      
2914.4248   70.3552     0.9349      
2914.5772   70.3552     0.9349      
2914.7296   70.3552     0.9349      
2914.882    70.3552     0.9349      
2915.0344   70.3552     0.9349      
2915.1868   70.3552     0.9349      
2915.3392   70.3552     0.9349      
2915.4916   70.3552     0.9349      
2915.644    70.3552     0.9349      
2915.7964   70.3552     0.9349      
2915.9488   70.3552     0.9349      
2916.1012   70.3552     0.9349      
2916.2536   70.3552     0.9349      
2916.406    70.3552     0.9349      
2916.5584   70.3552     0.9349      
2916.7108   70.3552     0.9349      
2916.8632   70.3552     0.9349      
2917.0156   70.3552     0.9349      
2917.168    70.3552     0.9349      
2917.3204   70.3552     0.9349      
2917.4728   70.3552     0.9349      
2917.6252   70.3552     0.9349      
2917.7776   70.3552     0.9349      
2917.93     70.3552     0.9349      
2918.0824   70.3552     0.9349      
2918.2348   70.3552     0.9349      
2918.3872   70.3552     0.9349      
2918.5396   70.3552     0.9349      
2918.692    70.3552     0.9349      
2918.8444   70.3552     0.9349      
2918.9968   70.3552     0.9349      
2919.1492   70.3552     0.9349      
2919.3016   70.3552     0.9349      
