#----------------------------------------------------------------------------
~VERSION INFORMATION
VERS.            2.0                  :CWLS LOG ASCII STANDARD -VERSION 2.0
WRAP.            NO                   :ONE LINE PER DEPTH STEP
#
#--------------------------------------------------------------------
~WELL INFORMATION
#MNEM .UNIT      DATA                 :DESCRIPTION OF MNEMONIC
#----------      ------------         -------------------------------
STRT  .m         902.1352             :START DEPTH
STEP  .m         0.1524               :STEP DEPTH
STOP  .m         2928.7504            :STOP DEPTH
NULL  .          -999.25              :NULL VALUE
COMP  .                               :COMPANY
WELL  .          22/15-3              :WELL
LOC   .                               :LOCATION - AREA
FLD   .          GBR_UNASSIGNED       :FIELD
CTRY  .          GBR                  :COUNTRY
DATE  .                               :WELL DATE
UWI   .          12000082036501                     :UWI
XWELL .m          614700.99            :X POS
YWELL .m          6383465.707          :Y POS
EDF   .          32.3088646176        :DERRICK FLOOR ELEVATION
#
#----------------------------------------------------------------------------
~CURVE INFORMATION
#MNEM.UNIT                                  : CURVE DESCRIPTION
#----------                                 -------------------------------
DEPT        .m                              : 1      DEPTH
GR          .API                            : 2      GR
V_Clay_all  .fract                          : 3      Volume
#
#----------------------------------------------------------------------------
~A          GR          V_Clay_all  
# ...
2357.2504   36.6774     0.3661      
2357.4028   38.2043     0.3919      
2357.5552   38.2545     0.3927      
2357.7076   36.9926     0.3714      
2357.86     36.4757     0.3627      
2358.0124   36.9896     0.3714      
2358.1648   36.4885     0.3629      
2358.3172   37.6035     0.3817      
2358.4696   37.5764     0.3813      
2358.622    38.6173     0.3989      
2358.7744   38.3404     0.3942      
2358.9268   40.7868     0.4355      
2359.0792   42.3676     0.4622      
2359.2316   44.0519     0.4907      
2359.384    43.5849     0.4828      
2359.5364   42.7821     0.4692      
2359.6888   40.8466     0.4365      
2359.8412   37.4891     0.3798      
2359.9936   36.1441     0.3571      
2360.146    39.5768     0.4151      
2360.2984   42.4984     0.4644      
2360.4508   41.4388     0.4465      
2360.6032   37.6972     0.3833      
2360.7556   36.9755     0.3711      
2360.908    38.2731     0.3931      
2361.0604   37.7121     0.3836      
2361.2128   36.3484     0.3606      
2361.3652   38.0647     0.3895      
2361.5176   39.6064     0.4156      
2361.67     40.7126     0.4343      
2361.8224   39.943      0.4213      
2361.9748   39.4445     0.4128      
2362.1272   40.6493     0.4332      
2362.2796   41.7613     0.452       
2362.432    44.5846     0.4997      
2362.5844   42.2423     0.4601      
2362.7368   38.942      0.4044      
2362.8892   35.0913     0.3393      
2363.0416   36.1045     0.3564      
2363.194    36.5567     0.3641      
2363.3464   35.7314     0.3501      
2363.4988   33.846      0.3183      
2363.6512   33.5884     0.3139      
2363.8036   36.2436     0.3588      
2363.956    37.7614     0.3844      
2364.1084   38.4572     0.3962      
2364.2608   38.2249     0.3922      
2364.4132   37.152      0.3741      
2364.5656   38.56       0.3979      
2364.718    36.8049     0.3683      
2364.8704   36.4585     0.3624      
2365.0228   33.7924     0.3174      
2365.1752   33.9696     0.3204      
2365.3276   35.2049     0.3412      
2365.48     34.3091     0.3261      
2365.6324   35.5977     0.3479      
2365.7848   35.1812     0.3408      
2365.9372   36.5587     0.3641      
2366.0896   36.7234     0.3669      
2366.242    34.9517     0.337       
2366.3944   34.1341     0.3232      
2366.5468   33.9791     0.3205      
2366.6992   34.698      0.3327      
2366.8516   35.9298     0.3535      
2367.004    35.818      0.3516      
2367.1564   35.7768     0.3509      
2367.3088   34.6172     0.3313      
2367.4612   34.2307     0.3248      
2367.6136   34.65       0.3319      
2367.766    33.9757     0.3205      
2367.9184   31.4873     0.2785      
2368.0708   29.4586     0.2442      
2368.2232   29.1983     0.2398      
2368.3756   28.2003     0.2229      
2368.528    29.0227     0.2368      
2368.6804   30.242      0.2574      
2368.8328   31.8958     0.2854      
2368.9852   32.3815     0.2936      
2369.1376   31.8948     0.2853      
2369.29     32.4321     0.2944      
2369.4424   31.5995     0.2803      
2369.5948   31.7585     0.283       
2369.7472   34.2528     0.3252      
2369.8996   36.6142     0.365       
2370.052    37.3242     0.377       
2370.2044   37.0438     0.3723      
2370.3568   36.8656     0.3693      
2370.5092   36.7782     0.3678      
2370.6616   36.2911     0.3596      
2370.814    36.3539     0.3606      
2370.9664   35.4946     0.3461      
2371.1188   36.0017     0.3547      
2371.2712   36.8914     0.3697      
2371.4236   37.0279     0.372       
2371.576    35.9551     0.3539      
2371.7284   35.3675     0.344       
2371.8808   36.3899     0.3613      
2372.0332   36.196      0.358       
2372.1856   36.3179     0.36        
2372.338    37.9215     0.3871      
2372.4904   38.8702     0.4031      
2372.6428   40.2174     0.4259      
2372.7952   40.5481     0.4315      
2372.9476   41.0006     0.4391      
2373.1      40.1851     0.4253      
2373.2524   40.3892     0.4288      
2373.4048   42.9794     0.4725      
2373.5572   42.0869     0.4575      
2373.7096   41.1812     0.4422      
2373.862    39.6188     0.4158      
2374.0144   41.9564     0.4553      
2374.1668   42.8538     0.4704      
2374.3192   43.4612     0.4807      
2374.4716   43.8225     0.4868      
2374.624    43.3567     0.4789      
2374.7764   43.2616     0.4773      
2374.9288   43.7855     0.4862      
2375.0812   44.989      0.5065      
2375.2336   44.371      0.496       
2375.386    42.4968     0.4644      
2375.5384   42.3592     0.4621      
2375.6908   44.1777     0.4928      
2375.8432   44.0523     0.4907      
2375.9956   42.2039     0.4594      
2376.148    42.173      0.4589      
2376.3004   44.1303     0.492       
2376.4528   45.5447     0.5159      
2376.6052   47.0299     0.5409      
2376.7576   48.5683     0.5669      
2376.91     48.6344     0.568       
2377.0624   45.4348     0.514       
2377.2148   45.0253     0.5071      
2377.3672   47.6397     0.5512      
2377.5196   49.5219     0.583       
2377.672    48.9434     0.5733      
2377.8244   48.9978     0.5742      
2377.9768   48.4556     0.565       
2378.1292   47.1724     0.5434      
2378.2816   44.8676     0.5044      
2378.434    44.8538     0.5042      
2378.5864   45.5764     0.5164      
2378.7388   45.9832     0.5233      
2378.8912   46.0524     0.5244      
2379.0436   47.3045     0.5456      
2379.196    46.1328     0.5258      
2379.3484   42.9634     0.4723      
2379.5008   40.4383     0.4296      
2379.6532   41.0417     0.4398      
2379.8056   46.483      0.5317      
2379.958    46.3906     0.5302      
2380.1104   46.9136     0.539       
2380.2628   43.4915     0.4812      
2380.4152   46.9444     0.5395      
2380.5676   48.6701     0.5687      
2380.72     48.6859     0.5689      
2380.8724   48.4075     0.5642      
2381.0248   47.6136     0.5508      
2381.1772   46.8917     0.5386      
2381.3296   45.918      0.5222      
2381.482    45.4801     0.5148      
2381.6344   48.182      0.5604      
2381.7868   48.7034     0.5692      
2381.9392   48.5573     0.5667      
2382.0916   48.3188     0.5627      
2382.244    48.9569     0.5735      
2382.3964   51.5104     0.6166      
2382.5488   51.7803     0.6212      
2382.7012   53.2857     0.6466      
2382.8536   52.7079     0.6368      
2383.006    51.3535     0.614       
2383.1584   50.0825     0.5925      
2383.3108   48.3152     0.5627      
2383.4632   47.3967     0.5471      
2383.6156   46.6379     0.5343      
2383.768    46.6825     0.5351      
2383.9204   48.063      0.5584      
2384.0728   48.2543     0.5616      
2384.2252   50.0742     0.5924      
2384.3776   49.6526     0.5852      
2384.53     50.3803     0.5975      
2384.6824   48.5763     0.5671      
2384.8348   48.2072     0.5608      
2384.9872   47.9183     0.556       
2385.1396   46.3929     0.5302      
2385.292    47.7988     0.5539      
2385.4444   49.8033     0.5878      
2385.5968   51.3726     0.6143      
2385.7492   51.5784     0.6178      
2385.9016   48.7108     0.5693      
2386.054    47.9629     0.5567      
2386.2064   47.8152     0.5542      
2386.3588   48.0905     0.5589      
2386.5112   48.1971     0.5607      
2386.6636   46.5608     0.533       
2386.816    47.0065     0.5406      
2386.9684   47.7528     0.5532      
2387.1208   50.0191     0.5914      
2387.2732   50.5139     0.5998      
2387.4256   49.7368     0.5867      
2387.578    49.0273     0.5747      
2387.7304   48.8384     0.5715      
2387.8828   50.6039     0.6013      
2388.0352   51.9777     0.6245      
2388.1876   52.3207     0.6303      
2388.34     52.4806     0.633       
2388.4924   52.2595     0.6293      
2388.6448   50.3953     0.5978      
2388.7972   50.1843     0.5942      
2388.9496   47.4726     0.5484      
2389.102    49.2119     0.5778      
2389.2544   50.4545     0.5988      
2389.4068   51.2926     0.6129      
2389.5592   51.5515     0.6173      
2389.7116   49.2473     0.5784      
2389.864    50.3386     0.5968      
2390.0164   49.7644     0.5871      
2390.1688   52.5827     0.6347      
