#----------------------------------------------------------------------------
~VERSION INFORMATION
VERS.            2.0                  :CWLS LOG ASCII STANDARD -VERSION 2.0
WRAP.            NO                   :ONE LINE PER DEPTH STEP
#
#--------------------------------------------------------------------
~WELL INFORMATION
#MNEM .UNIT      DATA                 :DESCRIPTION OF MNEMONIC
#----------      ------------         -------------------------------
STRT  .m         902.1352             :START DEPTH
STEP  .m         0.1524               :STEP DEPTH
STOP  .m         2928.7504            :STOP DEPTH
NULL  .          -999.25              :NULL VALUE
COMP  .                               :COMPANY
WELL  .          22/15-3              :WELL
LOC   .                               :LOCATION - AREA
FLD   .          GBR_UNASSIGNED       :FIELD
CTRY  .          GBR                  :COUNTRY
DATE  .                               :WELL DATE
UWI   .          12000082036501                     :UWI
XWELL .m          614700.99            :X POS
YWELL .m          6383465.707          :Y POS
EDF   .          32.3088646176        :DERRICK FLOOR ELEVATION
#
#----------------------------------------------------------------------------
~CURVE INFORMATION
#MNEM.UNIT                                  : CURVE DESCRIPTION
#----------                                 -------------------------------
DEPT        .m                              : 1      DEPTH
GR          .API                            : 2      GR
V_Clay_all  .fract                          : 3      Volume
#
#----------------------------------------------------------------------------
~A          GR          V_Clay_all  
# ...
2754.1      55.9476     0.6916      
2754.2524   58.68       0.7377      
2754.4048   63.8366     0.8248      
2754.5572   65.409      0.8514      
2754.7096   63.5329     0.8197      
2754.862    62.0712     0.795       
2755.0144   65.6851     0.856       
2755.1668   67.2232     0.882       
2755.3192   67.336      0.8839      
2755.4716   71.0148     0.9522      
2755.624    76.7185     1.0         
2755.7764   79.4285     0.998       
2755.9288   71.1857     0.9617      
2756.0812   64.585      0.8374      
2756.2336   61.5928     0.7869      
2756.386    63.8091     0.8243      
2756.5384   58.9025     0.7415      
2756.6908   52.8528     0.6393      
2756.8432   46.1288     0.5257      
2756.9956   40.0714     0.4234      
2757.148    33.3413     0.3098      
2757.3004   27.1223     0.2047      
2757.4528   26.7232     0.198       
2757.6052   31.588      0.2802      
2757.7576   45.2303     0.5116      
2757.91     65.6298     0.8607      
2758.0624   79.2901     1.0         
2758.2148   82.8305     1.0         
2758.3672   77.0751     1.0         
2758.5196   73.6628     0.9894      
2758.672    69.3427     0.9188      
2758.8244   64.8374     0.8417      
2758.9768   61.4552     0.7846      
2759.1292   60.1563     0.7626      
2759.2816   54.9237     0.6743      
2759.434    48.7888     0.5707      
2759.5864   46.654      0.5346      
2759.7388   49.5538     0.5836      
2759.8912   51.0899     0.6095      
2760.0436   51.1755     0.611       
2760.196    52.39       0.6315      
2760.3484   56.0906     0.694       
2760.5008   56.8953     0.7076      
2760.6532   56.7201     0.7046      
2760.8056   51.9709     0.6244      
2760.958    47.2236     0.5442      
2761.1104   42.8052     0.4696      
2761.2628   41.219      0.4428      
2761.4152   39.9815     0.4219      
2761.5676   35.977      0.3543      
2761.72     34.5861     0.3308      
2761.8724   37.8878     0.3865      
2762.0248   46.0998     0.5252      
2762.1772   50.2534     0.5954      
2762.3296   48.4815     0.5655      
2762.482    47.2028     0.5439      
2762.6344   50.0396     0.5918      
2762.7868   56.43       0.6997      
2762.9392   59.0435     0.7438      
2763.0916   59.5586     0.7525      
2763.244    58.2478     0.7304      
2763.3964   59.1347     0.7454      
2763.5488   57.6302     0.72        
2763.7012   56.7867     0.7057      
2763.8536   52.4265     0.6321      
2764.006    48.4139     0.5643      
2764.1584   48.0573     0.5583      
2764.3108   50.9275     0.6068      
2764.4632   54.6869     0.6703      
2764.6156   55.5605     0.685       
2764.768    56.461      0.7002      
2764.9204   59.2092     0.7466      
2765.0728   61.6305     0.7875      
2765.2252   62.6361     0.8045      
2765.3776   60.7219     0.7722      
2765.53     60.0345     0.7606      
2765.6824   57.1335     0.7116      
2765.8348   55.4174     0.6826      
2765.9872   53.8249     0.6557      
2766.1396   56.2587     0.6968      
2766.292    57.9072     0.7247      
2766.4444   58.3274     0.7318      
2766.5968   58.2702     0.7308      
2766.7492   57.9883     0.726       
2766.9016   57.6487     0.7203      
2767.054    56.8891     0.7075      
2767.2064   58.3067     0.7314      
2767.3588   59.4725     0.7511      
2767.5112   60.2903     0.7649      
2767.6636   60.0455     0.7608      
2767.816    61.0447     0.7776      
2767.9684   60.2959     0.765       
2768.1208   58.2598     0.7306      
2768.2732   55.1659     0.6784      
2768.4256   54.8308     0.6727      
2768.578    57.1046     0.7111      
2768.7304   58.2829     0.731       
2768.8828   58.1257     0.7283      
2769.0352   56.8681     0.7071      
2769.1876   56.7698     0.7054      
2769.34     57.0088     0.7095      
2769.4924   57.096      0.711       
2769.6448   56.7799     0.7056      
2769.7972   55.93       0.6913      
2769.9496   57.626      0.7199      
2770.102    59.3264     0.7486      
2770.2544   58.8291     0.7402      
2770.4068   52.077      0.6262      
2770.5592   46.7118     0.5356      
2770.7116   45.7885     0.52        
2770.864    47.2476     0.5446      
2771.0164   47.9006     0.5557      
2771.1688   46.7633     0.5364      
2771.3212   47.1641     0.5432      
2771.4736   49.4808     0.5823      
2771.626    51.0134     0.6082      
2771.7784   51.4471     0.6156      
2771.9308   48.0528     0.5582      
2772.0832   46.2884     0.5284      
2772.2356   43.8485     0.4872      
2772.388    44.4938     0.4981      
2772.5404   45.3541     0.5126      
2772.6928   47.9108     0.5558      
2772.8452   49.7701     0.5872      
2772.9976   50.8225     0.605       
2773.15     53.3537     0.6478      
2773.3024   53.9204     0.6573      
2773.4548   53.6        0.6519      
2773.6072   51.8186     0.6218      
2773.7596   51.588      0.6179      
2773.912    53.0967     0.6434      
2774.0644   51.4484     0.6156      
2774.2168   47.3814     0.5469      
2774.3692   43.3361     0.4786      
2774.5216   42.9798     0.4725      
2774.674    43.5592     0.4823      
2774.8264   43.4064     0.4798      
2774.9788   43.0902     0.4744      
2775.1312   45.2076     0.5102      
2775.2836   49.929      0.5899      
2775.436    51.9427     0.6239      
2775.5884   52.5171     0.6336      
2775.7408   50.6631     0.6023      
2775.8932   49.171      0.5771      
2776.0456   47.1194     0.5425      
2776.198    48.2625     0.5618      
2776.3504   51.555      0.6174      
2776.5028   56.4473     0.7         
2776.6552   59.3237     0.7486      
2776.8076   60.5127     0.7687      
2776.96     59.9621     0.7594      
2777.1124   56.8658     0.7071      
2777.2648   51.5028     0.6165      
2777.4172   50.1891     0.5943      
2777.5696   51.6058     0.6182      
2777.722    57.022      0.7097      
2777.8744   57.7471     0.722       
2778.0268   56.725      0.7047      
2778.1792   55.7856     0.6888      
2778.3316   55.1724     0.6785      
2778.484    55.0801     0.6769      
2778.6364   55.825      0.6895      
2778.7888   59.0275     0.7436      
2778.9412   60.3476     0.7659      
2779.0936   59.5014     0.7516      
2779.246    55.7618     0.6884      
2779.3984   51.4078     0.6149      
2779.5508   50.5186     0.5999      
2779.7032   53.4294     0.649       
2779.8556   55.9039     0.6908      
2780.008    55.1074     0.6774      
2780.1604   54.5065     0.6672      
2780.3128   55.6694     0.6869      
2780.4652   58.0151     0.7265      
2780.6176   58.6141     0.7366      
2780.77     57.8827     0.7242      
2780.9224   57.9534     0.7254      
2781.0748   57.3304     0.7149      
2781.2272   54.8697     0.6734      
2781.3796   52.2874     0.6297      
2781.532    51.4497     0.6156      
2781.6844   54.0481     0.6595      
2781.8368   57.3405     0.7151      
2781.9892   58.5291     0.7352      
2782.1416   57.5536     0.7187      
2782.294    54.4159     0.6657      
2782.4464   54.7008     0.6705      
2782.5988   54.7938     0.6721      
2782.7512   53.9785     0.6583      
2782.9036   50.6669     0.6024      
2783.056    50.5395     0.6002      
2783.2084   54.2492     0.6629      
2783.3608   57.0383     0.71        
2783.5132   57.5283     0.7183      
2783.6656   56.0549     0.6934      
2783.818    53.7651     0.6547      
2783.9704   52.6352     0.6356      
2784.1228   53.9026     0.657       
2784.2752   55.8775     0.6904      
2784.4276   57.5395     0.7184      
2784.58     57.074      0.7106      
2784.7324   54.7506     0.6713      
2784.8848   53.357      0.6478      
2785.0372   54.3942     0.6653      
2785.1896   54.8407     0.6729      
2785.342    55.1463     0.678       
2785.4944   53.1177     0.6438      
2785.6468   54.7325     0.671       
2785.7992   55.3398     0.6813      
2785.9516   58.3548     0.7322      
2786.104    58.059      0.7272      
2786.2564   57.1429     0.7117      
2786.4088   52.8027     0.6384      
2786.5612   51.5023     0.6165      
2786.7136   51.4565     0.6157      
2786.866    50.3226     0.5966      
2787.0184   51.3752     0.6143      
