#----------------------------------------------------------------------------
~VERSION INFORMATION
VERS.            2.0                  :CWLS LOG ASCII STANDARD -VERSION 2.0
WRAP.            NO                   :ONE LINE PER DEPTH STEP
#
#--------------------------------------------------------------------
~WELL INFORMATION
#MNEM .UNIT      DATA                 :DESCRIPTION OF MNEMONIC
#----------      ------------         -------------------------------
STRT  .m         902.1352             :START DEPTH
STEP  .m         0.1524               :STEP DEPTH
STOP  .m         2928.7504            :STOP DEPTH
NULL  .          -999.25              :NULL VALUE
COMP  .                               :COMPANY
WELL  .          22/15-3              :WELL
LOC   .                               :LOCATION - AREA
FLD   .          GBR_UNASSIGNED       :FIELD
CTRY  .          GBR                  :COUNTRY
DATE  .                               :WELL DATE
UWI   .          12000082036501                     :UWI
XWELL .m          614700.99            :X POS
YWELL .m          6383465.707          :Y POS
EDF   .          32.3088646176        :DERRICK FLOOR ELEVATION
#
#----------------------------------------------------------------------------
~CURVE INFORMATION
#MNEM.UNIT                                  : CURVE DESCRIPTION
#----------                                 -------------------------------
DEPT        .m                              : 1      DEPTH
GR          .API                            : 2      GR
V_Clay_all  .fract                          : 3      Volume
#
#----------------------------------------------------------------------------
~A          GR          V_Clay_all  
# ...
1563.5512   60.5293     0.7689      
1563.7036   63.682      0.8222      
1563.856    63.4895     0.8189      
1564.0084   62.0791     0.7951      
1564.1608   58.2162     0.7299      
1564.3132   58.5148     0.7349      
1564.4656   56.9814     0.709       
1564.618    56.6072     0.7027      
1564.7704   55.2939     0.6805      
1564.9228   56.0981     0.6941      
1565.0752   56.9548     0.7086      
1565.2276   56.0229     0.6928      
1565.38     56.6189     0.7029      
1565.5324   58.3285     0.7318      
1565.6848   60.561      0.7695      
1565.8372   61.6351     0.7876      
1565.9896   61.1321     0.7791      
1566.142    61.4285     0.7841      
1566.2944   58.4908     0.7345      
1566.4468   56.5451     0.7017      
1566.5992   53.3264     0.6473      
1566.7516   58.5289     0.7352      
1566.904    59.7332     0.7555      
1567.0564   61.3055     0.782       
1567.2088   56.4876     0.7007      
1567.3612   54.0927     0.6602      
1567.5136   54.124      0.6608      
1567.666    56.5004     0.7009      
1567.8184   58.6687     0.7375      
1567.9708   58.0847     0.7277      
1568.1232   61.0741     0.7781      
1568.2756   61.4109     0.7838      
1568.428    63.1871     0.8138      
1568.5804   59.5483     0.7524      
1568.7328   60.7254     0.7723      
1568.8852   59.5918     0.7531      
1569.0376   58.6711     0.7376      
1569.19     57.7045     0.7212      
1569.3424   59.5576     0.7525      
1569.4948   60.3309     0.7656      
1569.6472   60.6531     0.771       
1569.7996   59.267      0.7476      
1569.952    59.0584     0.7441      
1570.1044   59.7295     0.7554      
1570.2568   59.2498     0.7473      
1570.4092   59.6748     0.7545      
1570.5616   59.5182     0.7519      
1570.714    58.4122     0.7332      
1570.8664   56.8134     0.7062      
1571.0188   56.6406     0.7033      
1571.1712   57.3495     0.7152      
1571.3236   57.3628     0.7155      
1571.476    54.638      0.6694      
1571.6284   55.0381     0.6762      
1571.7808   58.9626     0.7425      
1571.9332   60.942      0.7759      
1572.0856   61.1014     0.7786      
1572.238    53.7955     0.6552      
1572.3904   48.0797     0.5587      
1572.5428   45.0136     0.5069      
1572.6952   46.8125     0.5373      
1572.8476   51.7529     0.6207      
1573.0      55.9706     0.6919      
1573.1524   60.2023     0.7634      
1573.3048   61.6791     0.7884      
1573.4572   61.5038     0.7854      
1573.6096   58.1009     0.7279      
1573.762    59.7603     0.756       
1573.9144   60.4401     0.7674      
1574.0668   61.852      0.7913      
1574.2192   61.6454     0.7878      
1574.3716   62.7506     0.8065      
1574.524    66.0475     0.8621      
1574.6764   65.0088     0.8446      
1574.8288   64.9657     0.8439      
1574.9812   64.7626     0.8404      
1575.1336   64.5933     0.8376      
1575.286    65.2501     0.8487      
1575.4384   64.8126     0.8413      
1575.5908   63.9384     0.8265      
1575.7432   62.3651     0.7999      
1575.8956   59.0075     0.7432      
1576.048    60.2831     0.7648      
1576.2004   60.2093     0.7635      
1576.3528   62.4969     0.8022      
1576.5052   60.7441     0.7726      
1576.6576   62.3898     0.8004      
1576.81     61.7887     0.7902      
1576.9624   62.7612     0.8066      
1577.1148   61.9067     0.7922      
1577.2672   60.8594     0.7745      
1577.4196   59.9023     0.7583      
1577.572    58.3769     0.7326      
1577.7244   58.6703     0.7375      
1577.8768   56.5483     0.7017      
1578.0292   57.3904     0.7159      
1578.1816   59.615      0.7535      
1578.334    62.4967     0.8022      
1578.4864   62.2106     0.7973      
1578.6388   61.9014     0.7921      
1578.7912   62.0065     0.7939      
1578.9436   62.3691     0.8         
1579.096    62.0339     0.7944      
1579.2484   62.2612     0.7982      
1579.4008   61.015      0.7771      
1579.5532   62.45       0.8014      
1579.7056   61.9253     0.7925      
1579.858    65.6029     0.8546      
1580.0104   66.223      0.8651      
1580.1628   66.7445     0.8739      
1580.3152   64.22       0.8313      
1580.4676   60.4484     0.7676      
1580.62     59.8161     0.7569      
1580.7724   59.4984     0.7515      
1580.9248   58.3792     0.7326      
1581.0772   56.7141     0.7045      
1581.2296   55.7756     0.6887      
1581.382    55.5266     0.6844      
1581.5344   58.2539     0.7305      
1581.6868   58.772      0.7393      
1581.8392   62.4889     0.802       
1581.9916   61.7608     0.7897      
1582.144    58.8639     0.7408      
1582.2964   57.8703     0.724       
1582.4488   59.8479     0.7574      
1582.6012   62.3302     0.7994      
1582.7536   62.1421     0.7962      
1582.906    61.8898     0.7919      
1583.0584   60.8143     0.7738      
1583.2108   60.9314     0.7757      
1583.3632   51.7324     0.6204      
1583.5156   45.4349     0.514       
1583.668    39.3513     0.4113      
1583.8204   46.0985     0.5252      
1583.9728   54.148      0.6612      
1584.1252   59.5914     0.7531      
1584.2776   61.1874     0.7801      
1584.43     63.1985     0.814       
1584.5824   65.3949     0.8511      
1584.7348   63.1485     0.8132      
1584.8872   61.0884     0.7784      
1585.0396   59.8718     0.7578      
1585.192    62.6823     0.8053      
1585.3444   62.4708     0.8017      
1585.4968   61.1766     0.7799      
1585.6492   59.6262     0.7537      
1585.8016   58.8487     0.7406      
1585.954    62.0887     0.7953      
1586.1064   60.968      0.7763      
1586.2588   64.1718     0.8305      
1586.4112   62.4239     0.8009      
1586.5636   62.0257     0.7942      
1586.716    57.3901     0.7159      
1586.8684   57.1272     0.7115      
1587.0208   59.4325     0.7504      
1587.1732   60.6765     0.7714      
1587.3256   61.1206     0.7789      
1587.478    60.3449     0.7658      
1587.6304   62.9865     0.8104      
1587.7828   63.0408     0.8114      
1587.9352   65.8491     0.8588      
1588.0876   66.4408     0.8688      
1588.24     68.6723     0.9065      
1588.3924   69.8724     0.9267      
1588.5448   68.1339     0.8974      
1588.6972   68.4177     0.9022      
1588.8496   66.2208     0.8651      
1589.002    67.6355     0.889       
1589.1544   69.0885     0.9135      
1589.3068   70.0046     0.929       
1589.4592   71.8935     0.9609      
1589.6116   67.191      0.8814      
1589.764    63.1016     0.8124      
1589.9164   59.2348     0.7471      
1590.0688   57.6583     0.7205      
1590.2212   60.1379     0.7623      
1590.3736   60.9142     0.7754      
1590.526    65.6225     0.855       
1590.6784   68.1795     0.8981      
1590.8308   70.1853     0.932       
1590.9832   68.3997     0.9019      
1591.1356   67.9536     0.8943      
1591.288    70.0668     0.93        
1591.4404   68.6254     0.9057      
1591.5928   66.3127     0.8666      
1591.7452   62.0294     0.7943      
1591.8976   60.1683     0.7628      
1592.05     60.929      0.7757      
1592.2024   64.2542     0.8318      
1592.3548   70.0202     0.9292      
1592.5072   69.0081     0.9121      
1592.6596   69.4234     0.9192      
1592.812    67.2563     0.8826      
1592.9644   67.4246     0.8854      
1593.1168   64.7872     0.8409      
1593.2692   64.0328     0.8281      
1593.4216   66.9515     0.8774      
1593.574    69.1499     0.9145      
1593.7264   70.5322     0.9379      
1593.8788   71.3894     0.9524      
1594.0312   71.7235     0.958       
1594.1836   73.1349     0.9818      
1594.336    71.1626     0.9485      
1594.4884   72.6541     0.9737      
1594.6408   68.6711     0.9064      
1594.7932   69.5686     0.9216      
1594.9456   66.082      0.8627      
1595.098    68.2175     0.8988      
1595.2504   66.0966     0.863       
1595.4028   65.2986     0.8495      
1595.5552   65.5095     0.853       
1595.7076   65.0851     0.8459      
1595.86     63.0056     0.8108      
1596.0124   61.3466     0.7827      
1596.1648   62.3179     0.7991      
1596.3172   66.4303     0.8686      
1596.4696   66.5157     0.87        
