#----------------------------------------------------------------------------
~VERSION INFORMATION
VERS.            2.0                  :CWLS LOG ASCII STANDARD -VERSION 2.0
WRAP.            NO                   :ONE LINE PER DEPTH STEP
#
#--------------------------------------------------------------------
~WELL INFORMATION
#MNEM .UNIT      DATA                 :DESCRIPTION OF MNEMONIC
#----------      ------------         -------------------------------
STRT  .m         902.1352             :START DEPTH
STEP  .m         0.1524               :STEP DEPTH
STOP  .m         2928.7504            :STOP DEPTH
NULL  .          -999.25              :NULL VALUE
COMP  .                               :COMPANY
WELL  .          22/15-3              :WELL
LOC   .                               :LOCATION - AREA
FLD   .          GBR_UNASSIGNED       :FIELD
CTRY  .          GBR                  :COUNTRY
DATE  .                               :WELL DATE
UWI   .          12000082036501                     :UWI
XWELL .m          614700.99            :X POS
YWELL .m          6383465.707          :Y POS
EDF   .          32.3088646176        :DERRICK FLOOR ELEVATION
#
#----------------------------------------------------------------------------
~CURVE INFORMATION
#MNEM.UNIT                                  : CURVE DESCRIPTION
#----------                                 -------------------------------
DEPT        .m                              : 1      DEPTH
GR          .API                            : 2      GR
V_Clay_all  .fract                          : 3      Volume
#
#----------------------------------------------------------------------------
~A          GR          V_Clay_all  
# ...
1431.268    70.416      0.9359      
1431.4204   67.8752     0.893       
1431.5728   65.6689     0.8557      
1431.7252   67.5236     0.8871      
1431.8776   68.9753     0.9116      
1432.03     69.0699     0.9132      
1432.1824   65.4965     0.8528      
1432.3348   64.6282     0.8382      
1432.4872   63.2636     0.8151      
1432.6396   64.0997     0.8292      
1432.792    62.7023     0.8056      
1432.9444   62.2151     0.7974      
1433.0968   65.2085     0.848       
1433.2492   65.1676     0.8473      
1433.4016   65.3262     0.85        
1433.554    64.6804     0.839       
1433.7064   67.7036     0.8901      
1433.8588   69.3889     0.9186      
1434.0112   69.375      0.9183      
1434.1636   68.5017     0.9036      
1434.316    68.3087     0.9003      
1434.4684   67.0947     0.8798      
1434.6208   66.8667     0.876       
1434.7732   67.0645     0.8793      
1434.9256   65.4453     0.852       
1435.078    63.513      0.8193      
1435.2304   64.0131     0.8278      
1435.3828   66.2864     0.8662      
1435.5352   71.2832     0.9506      
1435.6876   69.6575     0.9231      
1435.84     68.6979     0.9069      
1435.9924   62.5333     0.8028      
1436.1448   62.4619     0.8016      
1436.2972   62.9084     0.8091      
1436.4496   66.9199     0.8769      
1436.602    68.366      0.9013      
1436.7544   65.9439     0.8604      
1436.9068   61.1679     0.7797      
1437.0592   58.507      0.7348      
1437.2116   58.7276     0.7385      
1437.364    60.5345     0.769       
1437.5164   61.2522     0.7811      
1437.6688   62.9956     0.8106      
1437.8212   63.5679     0.8203      
1437.9736   67.3788     0.8847      
1438.126    70.5608     0.9378      
1438.2784   75.3702     1.0         
1438.4308   75.9874     1.0         
1438.5832   75.0827     1.0         
1438.7356   77.1555     1.0         
1438.888    77.334      1.0         
1439.0404   79.5144     0.9997      
1439.1928   73.121      0.9818      
1439.3452   72.631      0.9733      
1439.4976   68.7379     0.9076      
1439.65     67.5449     0.8874      
1439.8024   62.2783     0.7985      
1439.9548   58.2077     0.7297      
1440.1072   58.892      0.7413      
1440.2596   58.9671     0.7426      
1440.412    63.0325     0.8112      
1440.5644   62.2024     0.7972      
1440.7168   61.4483     0.7845      
1440.8692   58.4091     0.7331      
1441.0216   55.9341     0.6913      
1441.174    54.8562     0.6731      
1441.3264   55.2798     0.6803      
1441.4788   55.0794     0.6769      
1441.6312   56.9487     0.7085      
1441.7836   59.0344     0.7437      
1441.936    62.2347     0.7977      
1442.0884   62.4069     0.8006      
1442.2408   60.4792     0.7681      
1442.3932   56.9718     0.7089      
1442.5456   54.4909     0.667       
1442.698    51.8007     0.6215      
1442.8504   50.9195     0.6066      
1443.0028   54.0933     0.6602      
1443.1552   55.8112     0.6893      
1443.3076   58.0578     0.7272      
1443.46     57.3767     0.7157      
1443.6124   57.77       0.7223      
1443.7648   58.842      0.7404      
1443.9172   59.7102     0.7551      
1444.0696   60.4347     0.7673      
1444.222    58.5216     0.735       
1444.3744   57.6133     0.7197      
1444.5268   59.484      0.7513      
1444.6792   59.9838     0.7597      
1444.8316   59.4885     0.7514      
1444.984    55.3762     0.6819      
1445.1364   57.7124     0.7214      
1445.2888   58.8515     0.7406      
1445.4412   62.2052     0.7972      
1445.5936   59.9548     0.7592      
1445.746    60.8951     0.7751      
1445.8984   60.7835     0.7732      
1446.0508   59.2421     0.7472      
1446.2032   56.1572     0.6951      
1446.3556   54.3487     0.6646      
1446.508    51.34       0.6137      
1446.6604   48.7026     0.5692      
1446.8128   41.6263     0.4497      
1446.9652   39.016      0.4056      
1447.1176   39.5686     0.4149      
1447.27     45.6442     0.5175      
1447.4224   52.7319     0.6372      
1447.5748   56.5441     0.7016      
1447.7272   63.3409     0.8164      
1447.8796   65.2744     0.8491      
1448.032    67.7315     0.8906      
1448.1844   63.2272     0.8145      
1448.3368   63.0769     0.812       
1448.4892   61.6479     0.7878      
1448.6416   61.3412     0.7827      
1448.794    57.9643     0.7256      
1448.9464   55.9305     0.6913      
1449.0988   54.1078     0.6605      
1449.2512   57.812      0.723       
1449.4036   59.3596     0.7492      
1449.556    58.9442     0.7422      
1449.7084   58.9275     0.7419      
1449.8608   55.8119     0.6893      
1450.0132   55.9504     0.6916      
1450.1656   52.3861     0.6314      
1450.318    54.6449     0.6696      
1450.4704   56.2803     0.6972      
1450.6228   57.5415     0.7185      
1450.7752   57.0605     0.7104      
1450.9276   56.4066     0.6993      
1451.08     58.6704     0.7375      
1451.2324   58.5077     0.7348      
1451.3848   61.5322     0.7859      
1451.5372   59.7868     0.7564      
1451.6896   57.3837     0.7158      
1451.842    52.358      0.6309      
1451.9944   50.6536     0.6021      
1452.1468   54.0173     0.659       
1452.2992   57.8744     0.7241      
1452.4516   58.7594     0.739       
1452.604    59.2097     0.7467      
1452.7564   60.561      0.7695      
1452.9088   61.9783     0.7934      
1453.0612   64.2258     0.8314      
1453.2136   60.3222     0.7654      
1453.366    59.872      0.7578      
1453.5184   56.4084     0.6993      
1453.6708   59.1896     0.7463      
1453.8232   59.9043     0.7584      
1453.9756   63.6058     0.8209      
1454.128    65.8683     0.8591      
1454.2804   64.5951     0.8376      
1454.4328   62.0651     0.7949      
1454.5852   58.6778     0.7377      
1454.7376   62.0046     0.7939      
1454.89     63.4612     0.8185      
1455.0424   65.7521     0.8571      
1455.1948   64.5287     0.8365      
1455.3472   65.3016     0.8495      
1455.4996   63.3805     0.8171      
1455.652    63.0741     0.8119      
1455.8044   60.2059     0.7635      
1455.9568   59.5502     0.7524      
1456.1092   58.3108     0.7315      
1456.2616   60.6122     0.7703      
1456.414    62.2837     0.7986      
1456.5664   63.5564     0.8201      
1456.7188   63.9059     0.826       
1456.8712   63.9376     0.8265      
1457.0236   63.2171     0.8143      
1457.176    59.4475     0.7507      
1457.3284   55.9015     0.6908      
1457.4808   55.7449     0.6881      
1457.6332   58.3853     0.7327      
1457.7856   62.1044     0.7955      
1457.938    61.0169     0.7772      
1458.0904   59.3347     0.7488      
1458.2428   57.3013     0.7144      
1458.3952   58.441      0.7337      
1458.5476   59.069      0.7443      
1458.7      58.5986     0.7363      
1458.8524   60.8211     0.7739      
1459.0048   60.8155     0.7738      
1459.1572   63.1271     0.8128      
1459.3096   61.3327     0.7825      
1459.462    61.4808     0.785       
1459.6144   61.8197     0.7907      
1459.7668   63.4898     0.8189      
1459.9192   66.3542     0.8673      
1460.0716   64.4403     0.835       
1460.224    63.7073     0.8226      
1460.3764   58.6329     0.7369      
1460.5288   57.0181     0.7096      
1460.6812   53.3834     0.6483      
1460.8336   58.2718     0.7308      
1460.986    60.9948     0.7768      
1461.1384   68.8284     0.9091      
1461.2908   70.2515     0.9326      
1461.4432   75.393      1.0         
1461.5956   73.6823     0.9932      
1461.748    67.5895     0.8882      
1461.9004   63.0471     0.8115      
1462.0528   60.4985     0.7684      
1462.2052   64.4512     0.8352      
1462.3576   63.4914     0.819       
1462.51     63.3832     0.8171      
1462.6624   63.7457     0.8233      
1462.8148   65.0115     0.8446      
1462.9672   64.237      0.8316      
1463.1196   63.014      0.8109      
1463.272    63.054      0.8116      
1463.4244   64.0145     0.8278      
1463.5768   63.159      0.8134      
1463.7292   65.3031     0.8496      
1463.8816   63.3177     0.816       
1464.034    63.1154     0.8126      
1464.1864   59.1988     0.7465      
