#----------------------------------------------------------------------------
~VERSION INFORMATION
VERS.            2.0                  :CWLS LOG ASCII STANDARD -VERSION 2.0
WRAP.            NO                   :ONE LINE PER DEPTH STEP
#
#--------------------------------------------------------------------
~WELL INFORMATION
#MNEM .UNIT      DATA                 :DESCRIPTION OF MNEMONIC
#----------      ------------         -------------------------------
STRT  .m         902.1352             :START DEPTH
STEP  .m         0.1524               :STEP DEPTH
STOP  .m         2928.7504            :STOP DEPTH
NULL  .          -999.25              :NULL VALUE
COMP  .                               :COMPANY
WELL  .          22/15-3              :WELL
LOC   .                               :LOCATION - AREA
FLD   .          GBR_UNASSIGNED       :FIELD
CTRY  .          GBR                  :COUNTRY
DATE  .                               :WELL DATE
UWI   .          12000082036501                     :UWI
XWELL .m          614700.99            :X POS
YWELL .m          6383465.707          :Y POS
EDF   .          32.3088646176        :DERRICK FLOOR ELEVATION
#
#----------------------------------------------------------------------------
~CURVE INFORMATION
#MNEM.UNIT                                  : CURVE DESCRIPTION
#----------                                 -------------------------------
DEPT        .m                              : 1      DEPTH
GR          .API                            : 2      GR
V_Clay_all  .fract                          : 3      Volume
#
#----------------------------------------------------------------------------
~A          GR          V_Clay_all  
# ...
1828.1176   60.1955     0.7633      
1828.27     60.0894     0.7615      
1828.4224   60.5998     0.7701      
1828.5748   57.4719     0.7173      
1828.7272   59.5986     0.7532      
1828.8796   56.7644     0.7054      
1829.032    58.7701     0.7392      
1829.1844   58.795      0.7396      
1829.3368   57.9969     0.7262      
1829.4892   56.3581     0.6985      
1829.6416   55.7827     0.6888      
1829.794    57.2911     0.7142      
1829.9464   58.0571     0.7272      
1830.0988   55.1507     0.6781      
1830.2512   57.8554     0.7238      
1830.4036   58.2739     0.7308      
1830.556    60.953      0.7761      
1830.7084   58.6        0.7364      
1830.8608   59.3067     0.7483      
1831.0132   58.9455     0.7422      
1831.1656   60.6253     0.7706      
1831.318    60.0868     0.7615      
1831.4704   60.7677     0.773       
1831.6228   61.7139     0.7889      
1831.7752   60.9921     0.7768      
1831.9276   59.9991     0.76        
1832.08     57.5991     0.7195      
1832.2324   56.7488     0.7051      
1832.3848   58.8301     0.7402      
1832.5372   57.5161     0.7181      
1832.6896   59.9007     0.7583      
1832.842    59.8963     0.7582      
1832.9944   61.3223     0.7823      
1833.1468   60.3551     0.766       
1833.2992   59.0785     0.7444      
1833.4516   58.1167     0.7282      
1833.604    58.4166     0.7333      
1833.7564   56.9345     0.7082      
1833.9088   58.5121     0.7349      
1834.0612   57.2968     0.7143      
1834.2136   57.326      0.7148      
1834.366    59.1201     0.7451      
1834.5184   60.5341     0.769       
1834.6708   60.0548     0.7609      
1834.8232   59.2785     0.7478      
1834.9756   57.4982     0.7177      
1835.128    58.8593     0.7407      
1835.2804   57.3604     0.7154      
1835.4328   59.2706     0.7477      
1835.5852   61.4831     0.785       
1835.7376   62.8768     0.8086      
1835.89     63.3226     0.8161      
1836.0424   60.2954     0.765       
1836.1948   60.6218     0.7705      
1836.3472   58.2875     0.7311      
1836.4996   54.2557     0.663       
1836.652    49.6702     0.5855      
1836.8044   50.9937     0.6079      
1836.9568   57.0894     0.7108      
1837.1092   61.5087     0.7855      
1837.2616   62.8171     0.8076      
1837.414    59.9387     0.759       
1837.5664   60.1355     0.7623      
1837.7188   57.7708     0.7224      
1837.8712   58.1369     0.7285      
1838.0236   55.8749     0.6903      
1838.176    56.9713     0.7088      
1838.3284   56.7826     0.7057      
1838.4808   59.3385     0.7488      
1838.6332   58.5996     0.7363      
1838.7856   59.4664     0.751       
1838.938    56.7058     0.7044      
1839.0904   56.4769     0.7005      
1839.2428   59.6577     0.7542      
1839.3952   61.1236     0.779       
1839.5476   61.7982     0.7904      
1839.7      61.3167     0.7822      
1839.8524   60.8425     0.7742      
1840.0048   62.1093     0.7956      
1840.1572   61.7625     0.7898      
1840.3096   61.5563     0.7863      
1840.462    62.4868     0.802       
1840.6144   60.9463     0.776       
1840.7668   60.3565     0.766       
1840.9192   56.5189     0.7012      
1841.0716   52.6324     0.6356      
1841.224    50.1047     0.5929      
1841.3764   51.2561     0.6123      
1841.5288   56.1145     0.6944      
1841.6812   60.3317     0.7656      
1841.8336   60.3303     0.7656      
1841.986    60.1384     0.7623      
1842.1384   58.6306     0.7369      
1842.2908   59.1474     0.7456      
1842.4432   60.8627     0.7746      
1842.5956   61.4167     0.7839      
1842.748    63.8177     0.8245      
1842.9004   63.722      0.8229      
1843.0528   63.5724     0.8203      
1843.2052   62.8703     0.8085      
1843.3576   59.7827     0.7563      
1843.51     60.6384     0.7708      
1843.6624   59.2426     0.7472      
1843.8148   59.5753     0.7528      
1843.9672   59.944      0.7591      
1844.1196   62.4321     0.8011      
1844.272    63.3104     0.8159      
1844.4244   62.0381     0.7944      
1844.5768   61.3105     0.7821      
1844.7292   59.302      0.7482      
1844.8816   59.1427     0.7455      
1845.034    59.0232     0.7435      
1845.1864   58.8922     0.7413      
1845.3388   57.9782     0.7259      
1845.4912   58.5868     0.7361      
1845.6436   63.7517     0.8234      
1845.796    66.1406     0.8637      
1845.9484   66.6665     0.8726      
1846.1008   64.2349     0.8315      
1846.2532   65.4034     0.8513      
1846.4056   65.4871     0.8527      
1846.558    64.4075     0.8344      
1846.7104   64.3313     0.8332      
1846.8628   66.1504     0.8639      
1847.0152   67.2989     0.8833      
1847.1676   64.6497     0.8385      
1847.32     62.5773     0.8035      
1847.4724   66.3063     0.8665      
1847.6248   68.1364     0.8974      
1847.7772   65.2322     0.8484      
1847.9296   60.036      0.7606      
1848.082    56.6929     0.7041      
1848.2344   53.5084     0.6504      
1848.3868   55.198      0.6789      
1848.5392   57.0294     0.7098      
1848.6916   62.6266     0.8044      
1848.844    64.7926     0.8409      
1848.9964   66.6505     0.8723      
1849.1488   65.989      0.8611      
1849.3012   64.1998     0.8309      
1849.4536   63.2666     0.8152      
1849.606    65.5654     0.854       
1849.7584   65.5784     0.8542      
1849.9108   63.7354     0.8231      
1850.0632   59.6793     0.7546      
1850.2156   59.8637     0.7577      
1850.368    60.0507     0.7609      
1850.5204   61.6583     0.788       
1850.6728   59.1673     0.7459      
1850.8252   61.8202     0.7907      
1850.9776   60.6937     0.7717      
1851.13     58.8957     0.7414      
1851.2824   58.337      0.7319      
1851.4348   57.783      0.7226      
1851.5872   62.1575     0.7964      
1851.7396   58.9539     0.7423      
1851.892    61.1858     0.78        
1852.0444   59.0642     0.7442      
1852.1968   60.3509     0.7659      
1852.3492   58.0397     0.7269      
1852.5016   59.8215     0.757       
1852.654    58.4717     0.7342      
1852.8064   58.563      0.7357      
1852.9588   59.4222     0.7502      
1853.1112   62.2965     0.7988      
1853.2636   65.0642     0.8455      
1853.416    61.6203     0.7874      
1853.5684   58.5182     0.735       
1853.7208   57.2728     0.7139      
1853.8732   59.3281     0.7487      
1854.0256   60.6668     0.7713      
1854.178    59.4679     0.751       
1854.3304   57.4675     0.7172      
1854.4828   58.3419     0.732       
1854.6352   62.4383     0.8012      
1854.7876   64.427      0.8348      
1854.94     63.2513     0.8149      
1855.0924   59.2743     0.7477      
1855.2448   58.6391     0.737       
1855.3972   60.3404     0.7657      
1855.5496   58.5989     0.7363      
1855.702    57.4357     0.7167      
1855.8544   54.8685     0.6733      
1856.0068   58.4543     0.7339      
1856.1592   59.8338     0.7572      
1856.3116   58.9863     0.7429      
1856.464    57.4815     0.7175      
1856.6164   60.0372     0.7606      
1856.7688   61.887      0.7919      
1856.9212   62.7652     0.8067      
1857.0736   59.5525     0.7524      
1857.226    61.3493     0.7828      
1857.3784   58.8408     0.7404      
1857.5308   60.3183     0.7654      
1857.6832   60.6171     0.7704      
1857.8356   63.5346     0.8197      
1857.988    62.5245     0.8026      
1858.1404   61.8234     0.7908      
1858.2928   59.9143     0.7586      
1858.4452   59.0581     0.7441      
1858.5976   58.2599     0.7306      
1858.75     59.3935     0.7498      
1858.9024   59.5311     0.7521      
1859.0548   58.8964     0.7414      
1859.2072   57.4845     0.7175      
1859.3596   55.4514     0.6832      
1859.512    55.4122     0.6825      
1859.6644   55.5295     0.6845      
1859.8168   57.719      0.7215      
1859.9692   56.1414     0.6948      
1860.1216   56.0659     0.6936      
1860.274    55.904      0.6908      
1860.4264   57.4932     0.7177      
1860.5788   57.7931     0.7227      
1860.7312   57.2667     0.7138      
1860.8836   58.367      0.7324      
1861.036    58.3629     0.7324      
