#----------------------------------------------------------------------------
~VERSION INFORMATION
VERS.            2.0                  :CWLS LOG ASCII STANDARD -VERSION 2.0
WRAP.            NO                   :ONE LINE PER DEPTH STEP
#
#--------------------------------------------------------------------
~WELL INFORMATION
#MNEM .UNIT      DATA                 :DESCRIPTION OF MNEMONIC
#----------      ------------         -------------------------------
STRT  .m         902.1352             :START DEPTH
STEP  .m         0.1524               :STEP DEPTH
STOP  .m         2928.7504            :STOP DEPTH
NULL  .          -999.25              :NULL VALUE
COMP  .                               :COMPANY
WELL  .          22/15-3              :WELL
LOC   .                               :LOCATION - AREA
FLD   .          GBR_UNASSIGNED       :FIELD
CTRY  .          GBR                  :COUNTRY
DATE  .                               :WELL DATE
UWI   .          12000082036501                     :UWI
XWELL .m          614700.99            :X POS
YWELL .m          6383465.707          :Y POS
EDF   .          32.3088646176        :DERRICK FLOOR ELEVATION
#
#----------------------------------------------------------------------------
~CURVE INFORMATION
#MNEM.UNIT                                  : CURVE DESCRIPTION
#----------                                 -------------------------------
DEPT        .m                              : 1      DEPTH
GR          .API                            : 2      GR
V_Clay_all  .fract                          : 3      Volume
#
#----------------------------------------------------------------------------
~A          GR          V_Clay_all  
# ...
2092.684    64.2595     0.8319      
2092.8364   69.9141     0.9274      
2092.9888   72.3314     0.9683      
2093.1412   72.5608     0.9721      
2093.2936   67.3057     0.8834      
2093.446    67.4296     0.8855      
2093.5984   64.3632     0.8337      
2093.7508   64.1354     0.8298      
2093.9032   60.8423     0.7742      
2094.0556   62.0492     0.7946      
2094.208    62.9622     0.81        
2094.3604   65.0248     0.8449      
2094.5128   65.5092     0.853       
2094.6652   67.291      0.8831      
2094.8176   67.8133     0.892       
2094.97     66.0566     0.8623      
2095.1224   65.2675     0.849       
2095.2748   66.1797     0.8644      
2095.4272   68.073      0.8963      
2095.5796   65.7335     0.8568      
2095.732    62.8937     0.8089      
2095.8844   62.5923     0.8038      
2096.0368   66.358      0.8674      
2096.1892   71.3002     0.9508      
2096.3416   71.9519     0.9619      
2096.494    70.9857     0.9455      
2096.6464   68.1617     0.8978      
2096.7988   66.2484     0.8655      
2096.9512   65.2843     0.8492      
2097.1036   67.6703     0.8895      
2097.256    69.8086     0.9257      
2097.4084   71.0336     0.9463      
2097.5608   65.5746     0.8541      
2097.7132   64.0254     0.828       
2097.8656   63.9413     0.8266      
2098.018    66.0735     0.8626      
2098.1704   66.5393     0.8704      
2098.3228   64.9136     0.843       
2098.4752   62.7493     0.8064      
2098.6276   62.3111     0.799       
2098.78     63.33       0.8162      
2098.9324   65.5852     0.8543      
2099.0848   65.8177     0.8583      
2099.2372   64.9036     0.8428      
2099.3896   66.8167     0.8751      
2099.542    64.2009     0.8309      
2099.6944   63.1968     0.814       
2099.8468   60.1364     0.7623      
2099.9992   62.3407     0.7995      
2100.1516   63.5744     0.8204      
2100.304    63.0871     0.8121      
2100.4564   63.816      0.8244      
2100.6088   65.9175     0.8599      
2100.7612   69.7319     0.9244      
2100.9136   71.4698     0.9537      
2101.066    70.9463     0.9449      
2101.2184   68.1831     0.8982      
2101.3708   65.8332     0.8585      
2101.5232   63.2177     0.8143      
2101.6756   64.867      0.8422      
2101.828    65.4071     0.8513      
2101.9804   65.7057     0.8564      
2102.1328   62.3144     0.7991      
2102.2852   61.2659     0.7814      
2102.4376   62.9746     0.8102      
2102.59     63.4595     0.8184      
2102.7424   65.3563     0.8505      
2102.8948   66.5591     0.8708      
2103.0472   66.9388     0.8772      
2103.1996   65.997      0.8613      
2103.352    62.6348     0.8045      
2103.5044   62.5198     0.8026      
2103.6568   64.3639     0.8337      
2103.8092   65.6176     0.8549      
2103.9616   68.0581     0.8961      
2104.114    63.7614     0.8235      
2104.2664   62.7564     0.8066      
2104.4188   62.7892     0.8071      
2104.5712   65.5312     0.8534      
2104.7236   66.3924     0.868       
2104.876    64.1902     0.8308      
2105.0284   63.0826     0.8121      
2105.1808   61.8128     0.7906      
2105.3332   61.4397     0.7843      
2105.4856   62.4293     0.801       
2105.638    64.6245     0.8381      
2105.7904   65.9525     0.8605      
2105.9428   64.1971     0.8309      
2106.0952   61.5895     0.7868      
2106.2476   60.1791     0.763       
2106.4      60.1545     0.7626      
2106.5524   61.0209     0.7772      
2106.7048   59.1076     0.7449      
2106.8572   58.8701     0.7409      
2107.0096   60.3293     0.7656      
2107.162    61.7287     0.7892      
2107.3144   62.6617     0.805       
2107.4668   60.2505     0.7642      
2107.6192   61.5362     0.7859      
2107.7716   62.0029     0.7938      
2107.924    63.3294     0.8162      
2108.0764   62.2565     0.7981      
2108.2288   61.3448     0.7827      
2108.3812   61.6031     0.7871      
2108.5336   60.5532     0.7693      
2108.686    60.1314     0.7622      
2108.8384   60.0822     0.7614      
2108.9908   61.2985     0.7819      
2109.1432   60.2938     0.765       
2109.2956   59.7458     0.7557      
2109.448    59.113      0.745       
2109.6004   62.8097     0.8075      
2109.7528   61.8449     0.7912      
2109.9052   64.1988     0.8309      
2110.0576   60.4751     0.768       
2110.21     65.6354     0.8552      
2110.3624   67.1702     0.8811      
2110.5148   68.0099     0.8953      
2110.6672   65.1364     0.8467      
2110.8196   62.7999     0.8073      
2110.972    63.356      0.8167      
2111.1244   62.4997     0.8022      
2111.2768   61.6062     0.7871      
2111.4292   59.4039     0.7499      
2111.5816   59.1011     0.7448      
2111.734    60.6825     0.7715      
2111.8864   59.9196     0.7586      
2112.0388   61.7199     0.789       
2112.1912   62.2984     0.7988      
2112.3436   64.4045     0.8344      
2112.496    63.8794     0.8255      
2112.6484   64.5373     0.8366      
2112.8008   65.3129     0.8497      
2112.9532   63.8581     0.8252      
2113.1056   60.3274     0.7655      
2113.258    62.1564     0.7964      
2113.4104   65.0282     0.8449      
2113.5628   66.239      0.8654      
2113.7152   65.7094     0.8564      
2113.8676   65.0238     0.8448      
2114.02     66.6402     0.8721      
2114.1724   65.04       0.8451      
2114.3248   63.7888     0.824       
2114.4772   63.0038     0.8107      
2114.6296   64.2052     0.831       
2114.782    66.8642     0.8759      
2114.9344   67.1135     0.8801      
2115.0868   67.806      0.8918      
2115.2392   64.4273     0.8348      
2115.3916   64.1549     0.8302      
2115.544    64.8717     0.8423      
2115.6964   64.8718     0.8423      
2115.8488   63.9551     0.8268      
2116.0012   63.6586     0.8218      
2116.1536   64.8914     0.8426      
2116.306    63.4228     0.8178      
2116.4584   63.1036     0.8124      
2116.6108   61.624      0.7874      
2116.7632   61.2882     0.7818      
2116.9156   60.0651     0.7611      
2117.068    59.7767     0.7562      
2117.2204   62.5778     0.8035      
2117.3728   61.4078     0.7838      
2117.5252   62.9745     0.8102      
2117.6776   62.8521     0.8082      
2117.83     65.4587     0.8522      
2117.9824   64.9861     0.8442      
2118.1348   63.8166     0.8245      
2118.2872   62.3657     0.8         
2118.4396   61.5547     0.7863      
2118.592    63.2149     0.8143      
2118.7444   63.4852     0.8189      
2118.8968   62.4731     0.8018      
2119.0492   59.7776     0.7562      
2119.2016   57.9513     0.7254      
2119.354    58.7911     0.7396      
2119.5064   60.6717     0.7713      
2119.6588   62.2294     0.7977      
2119.8112   63.7005     0.8225      
2119.9636   62.4786     0.8019      
2120.116    60.6754     0.7714      
2120.2684   60.1197     0.762       
2120.4208   60.5171     0.7687      
2120.5732   61.2561     0.7812      
2120.7256   60.3648     0.7662      
2120.878    60.728      0.7723      
2121.0304   58.8191     0.7401      
2121.1828   58.3709     0.7325      
2121.3352   57.0506     0.7102      
2121.4876   58.9562     0.7424      
2121.64     59.6016     0.7533      
2121.7924   61.423      0.784       
2121.9448   62.1662     0.7966      
2122.0972   63.0057     0.8108      
2122.2496   61.9603     0.7931      
2122.402    61.9455     0.7929      
2122.5544   55.0366     0.6762      
2122.7068   52.7231     0.6371      
2122.8592   51.6954     0.6197      
2123.0116   55.0049     0.6756      
2123.164    56.5088     0.701       
2123.3164   59.508      0.7517      
2123.4688   64.2862     0.8324      
2123.6212   65.0898     0.846       
2123.7736   60.2427     0.7641      
2123.926    57.6907     0.721       
2124.0784   57.4392     0.7168      
2124.2308   58.4694     0.7342      
2124.3832   61.3085     0.7821      
2124.5356   61.0511     0.7778      
2124.688    64.751      0.8402      
2124.8404   61.657      0.788       
2124.9928   61.9669     0.7932      
2125.1452   62.1247     0.7959      
2125.2976   63.1839     0.8138      
2125.45     64.6039     0.8378      
2125.6024   63.9327     0.8264      
