#----------------------------------------------------------------------------
~VERSION INFORMATION
VERS.            2.0                  :CWLS LOG ASCII STANDARD -VERSION 2.0
WRAP.            NO                   :ONE LINE PER DEPTH STEP
#
#--------------------------------------------------------------------
~WELL INFORMATION
#MNEM .UNIT      DATA                 :DESCRIPTION OF MNEMONIC
#----------      ------------         -------------------------------
STRT  .m         902.1352             :START DEPTH
STEP  .m         0.1524               :STEP DEPTH
STOP  .m         2928.7504            :STOP DEPTH
NULL  .          -999.25              :NULL VALUE
COMP  .                               :COMPANY
WELL  .          22/15-3              :WELL
LOC   .                               :LOCATION - AREA
FLD   .          GBR_UNASSIGNED       :FIELD
CTRY  .          GBR                  :COUNTRY
DATE  .                               :WELL DATE
UWI   .          12000082036501                     :UWI
XWELL .m          614700.99            :X POS
YWELL .m          6383465.707          :Y POS
EDF   .          32.3088646176        :DERRICK FLOOR ELEVATION
#
#----------------------------------------------------------------------------
~CURVE INFORMATION
#MNEM.UNIT                                  : CURVE DESCRIPTION
#----------                                 -------------------------------
DEPT        .m                              : 1      DEPTH
GR          .API                            : 2      GR
V_Clay_all  .fract                          : 3      Volume
#
#----------------------------------------------------------------------------
~A          GR          V_Clay_all  
# ...
1695.8344   66.2492     0.8655      
1695.9868   63.1629     0.8134      
1696.1392   61.1406     0.7793      
1696.2916   61.203      0.7803      
1696.444    63.3173     0.816       
1696.5964   66.0335     0.8619      
1696.7488   67.9396     0.8941      
1696.9012   66.876      0.8761      
1697.0536   64.8812     0.8424      
1697.206    61.2695     0.7814      
1697.3584   63.5574     0.8201      
1697.5108   66.0258     0.8618      
1697.6632   66.4604     0.8691      
1697.8156   65.3892     0.851       
1697.968    62.8654     0.8084      
1698.1204   66.9373     0.8772      
1698.2728   65.7064     0.8564      
1698.4252   62.5332     0.8028      
1698.5776   55.0944     0.6772      
1698.73     47.9495     0.5565      
1698.8824   46.9519     0.5396      
1699.0348   53.3882     0.6483      
1699.1872   62.2257     0.7976      
1699.3396   67.1763     0.8812      
1699.492    67.5763     0.888       
1699.6444   69.9655     0.9283      
1699.7968   68.5681     0.9047      
1699.9492   68.7953     0.9085      
1700.1016   67.6529     0.8892      
1700.254    70.2421     0.933       
1700.4064   70.9017     0.9441      
1700.5588   67.8239     0.8921      
1700.7112   66.2484     0.8655      
1700.8636   66.7179     0.8737      
1701.016    73.3295     0.982       
1701.1684   75.84       0.9998      
1701.3208   72.5789     0.9746      
1701.4732   67.9129     0.8936      
1701.6256   67.5513     0.8875      
1701.778    71.8217     0.9597      
1701.9304   73.1778     0.9826      
1702.0828   69.9617     0.9282      
1702.2352   65.9415     0.8603      
1702.3876   64.1487     0.8301      
1702.54     65.7741     0.8575      
1702.6924   65.0238     0.8448      
1702.8448   66.0367     0.862       
1702.9972   66.9        0.8765      
1703.1496   70.6575     0.94        
1703.302    72.1714     0.9656      
1703.4544   72.8071     0.9763      
1703.6068   69.0831     0.9134      
1703.7592   69.059      0.913       
1703.9116   68.1081     0.8969      
1704.064    71.0868     0.9472      
1704.2164   71.0611     0.9468      
1704.3688   69.1471     0.9145      
1704.5212   67.1242     0.8803      
1704.6736   67.2226     0.882       
1704.826    67.4216     0.8853      
1704.9784   67.9785     0.8947      
1705.1308   65.4916     0.8527      
1705.2832   68.2473     0.8993      
1705.4356   65.6092     0.8547      
1705.588    64.8363     0.8417      
1705.7404   58.2339     0.7302      
1705.8928   60.8478     0.7743      
1706.0452   63.539      0.8198      
1706.1976   66.6979     0.8731      
1706.35     65.4468     0.852       
1706.5024   65.0692     0.8456      
1706.6548   69.0553     0.9129      
1706.8072   69.9032     0.9273      
1706.9596   67.5531     0.8876      
1707.112    63.5671     0.8202      
1707.2644   62.4438     0.8013      
1707.4168   62.5879     0.8037      
1707.5692   61.4978     0.7853      
1707.7216   62.6826     0.8053      
1707.874    64.5558     0.8369      
1708.0264   66.1151     0.8633      
1708.1788   65.2865     0.8493      
1708.3312   62.3163     0.7991      
1708.4836   61.134      0.7792      
1708.636    59.7393     0.7556      
1708.7884   56.5506     0.7017      
1708.9408   55.3568     0.6816      
1709.0932   55.1062     0.6773      
1709.2456   58.7506     0.7389      
1709.398    59.6787     0.7546      
1709.5504   59.8788     0.758       
1709.7028   61.1111     0.7788      
1709.8552   63.3376     0.8164      
1710.0076   66.4473     0.8689      
1710.16     63.673      0.822       
1710.3124   65.1112     0.8463      
1710.4648   64.7568     0.8403      
1710.6172   65.1174     0.8464      
1710.7696   60.3451     0.7658      
1710.922    55.5749     0.6853      
1711.0744   58.2646     0.7307      
1711.2268   56.3738     0.6988      
1711.3792   55.4188     0.6826      
1711.5316   51.1234     0.6101      
1711.684    53.1683     0.6446      
1711.8364   56.9106     0.7078      
1711.9888   60.2239     0.7638      
1712.1412   60.8611     0.7745      
1712.2936   62.9782     0.8103      
1712.446    64.5334     0.8366      
1712.5984   66.0429     0.8621      
1712.7508   66.8477     0.8757      
1712.9032   67.4634     0.886       
1713.0556   66.3484     0.8672      
1713.208    59.0544     0.744       
1713.3604   56.6661     0.7037      
1713.5128   59.7496     0.7558      
1713.6652   65.8329     0.8585      
1713.8176   66.6704     0.8727      
1713.97     64.5293     0.8365      
1714.1224   64.4907     0.8358      
1714.2748   65.4685     0.8524      
1714.4272   65.3984     0.8512      
1714.5796   64.391      0.8342      
1714.732    63.7107     0.8227      
1714.8844   63.2745     0.8153      
1715.0368   64.4191     0.8346      
1715.1892   62.4899     0.8021      
1715.3416   63.4938     0.819       
1715.494    62.7211     0.806       
1715.6464   64.9885     0.8443      
1715.7988   65.4331     0.8518      
1715.9512   67.7303     0.8906      
1716.1036   67.4167     0.8853      
1716.256    67.0653     0.8793      
1716.4084   65.6828     0.856       
1716.5608   66.5458     0.8706      
1716.7132   65.8444     0.8587      
1716.8656   66.9349     0.8771      
1717.018    67.1777     0.8812      
1717.1704   67.3564     0.8842      
1717.3228   67.827      0.8922      
1717.4752   70.0192     0.9292      
1717.6276   70.5298     0.9378      
1717.78     67.2851     0.883       
1717.9324   65.4275     0.8517      
1718.0848   66.2916     0.8663      
1718.2372   66.6493     0.8723      
1718.3896   65.8813     0.8593      
1718.542    64.6534     0.8386      
1718.6944   62.7118     0.8058      
1718.8468   59.9136     0.7585      
1718.9992   59.6315     0.7538      
1719.1516   60.8695     0.7747      
1719.304    64.3991     0.8343      
1719.4564   64.8057     0.8412      
1719.6088   65.851      0.8588      
1719.7612   62.9277     0.8094      
1719.9136   61.5351     0.7859      
1720.066    63.6306     0.8213      
1720.2184   66.1823     0.8644      
1720.3708   68.1964     0.8984      
1720.5232   65.7043     0.8563      
1720.6756   66.6385     0.8721      
1720.828    66.6365     0.8721      
1720.9804   66.4084     0.8682      
1721.1328   65.6261     0.855       
1721.2852   67.4793     0.8863      
1721.4376   67.4651     0.8861      
1721.59     67.9529     0.8943      
1721.7424   67.0727     0.8794      
1721.8948   68.6181     0.9056      
1722.0472   67.0482     0.879       
1722.1996   66.699      0.8731      
1722.352    63.4018     0.8175      
1722.5044   62.9521     0.8099      
1722.6568   58.7444     0.7388      
1722.8092   65.1071     0.8463      
1722.9616   66.8403     0.8755      
1723.114    71.2834     0.9506      
1723.2664   65.8976     0.8596      
1723.4188   64.8387     0.8417      
1723.5712   65.2496     0.8487      
1723.7236   67.1905     0.8814      
1723.876    70.6439     0.9398      
1724.0284   70.2861     0.9337      
1724.1808   71.0784     0.9471      
1724.3332   68.6326     0.9058      
1724.4856   69.7323     0.9244      
1724.638    69.9475     0.928       
1724.7904   68.929      0.9108      
1724.9428   63.4377     0.8181      
1725.0952   60.0242     0.7604      
1725.2476   57.8138     0.7231      
1725.4      61.1511     0.7794      
1725.5524   61.3328     0.7825      
1725.7048   64.3696     0.8338      
1725.8572   64.2217     0.8313      
1726.0096   65.1033     0.8462      
1726.162    62.8203     0.8076      
1726.3144   63.5425     0.8198      
1726.4668   65.1109     0.8463      
1726.6192   65.7534     0.8572      
1726.7716   62.8996     0.809       
1726.924    61.1089     0.7787      
1727.0764   62.9587     0.81        
1727.2288   65.9592     0.8606      
1727.3812   67.3577     0.8843      
1727.5336   68.0952     0.8967      
1727.686    64.71       0.8395      
1727.8384   63.8343     0.8248      
1727.9908   60.0332     0.7606      
1728.1432   63.8295     0.8247      
1728.2956   62.5654     0.8033      
1728.448    64.2217     0.8313      
1728.6004   62.3178     0.7991      
1728.7528   62.1544     0.7964      
