#----------------------------------------------------------------------------
~VERSION INFORMATION
VERS.            2.0                  :CWLS LOG ASCII STANDARD -VERSION 2.0
WRAP.            NO                   :ONE LINE PER DEPTH STEP
#
#--------------------------------------------------------------------
~WELL INFORMATION
#MNEM .UNIT      DATA                 :DESCRIPTION OF MNEMONIC
#----------      ------------         -------------------------------
STRT  .m         902.1352             :START DEPTH
STEP  .m         0.1524               :STEP DEPTH
STOP  .m         2928.7504            :STOP DEPTH
NULL  .          -999.25              :NULL VALUE
COMP  .                               :COMPANY
WELL  .          22/15-3              :WELL
LOC   .                               :LOCATION - AREA
FLD   .          GBR_UNASSIGNED       :FIELD
CTRY  .          GBR                  :COUNTRY
DATE  .                               :WELL DATE
UWI   .          12000082036501                     :UWI
XWELL .m          614700.99            :X POS
YWELL .m          6383465.707          :Y POS
EDF   .          32.3088646176        :DERRICK FLOOR ELEVATION
#
#----------------------------------------------------------------------------
~CURVE INFORMATION
#MNEM.UNIT                                  : CURVE DESCRIPTION
#----------                                 -------------------------------
DEPT        .m                              : 1      DEPTH
GR          .API                            : 2      GR
V_Clay_all  .fract                          : 3      Volume
#
#----------------------------------------------------------------------------
~A          GR          V_Clay_all  
# ...
1298.9848   67.9876     0.8949      
1299.1372   69.9107     0.9274      
1299.2896   68.4572     0.9028      
1299.442    67.2804     0.883       
1299.5944   64.7437     0.8401      
1299.7468   65.9564     0.8606      
1299.8992   67.7905     0.8916      
1300.0516   69.1452     0.9145      
1300.204    70.4806     0.937       
1300.3564   70.8231     0.9428      
1300.5088   71.2326     0.9497      
1300.6612   68.9089     0.9105      
1300.8136   68.8895     0.9101      
1300.966    66.571      0.871       
1301.1184   64.8511     0.8419      
1301.2708   60.9719     0.7764      
1301.4232   62.3347     0.7994      
1301.5756   67.5762     0.8881      
1301.728    72.8739     0.9749      
1301.8804   76.9752     1.0         
1302.0328   78.7452     1.0         
1302.1852   82.2428     1.0         
1302.3376   78.6343     1.0         
1302.49     75.9199     0.9997      
1302.6424   72.9184     0.9779      
1302.7948   76.5104     1.0         
1302.9472   78.4906     1.0         
1303.0996   75.7901     0.9996      
1303.252    72.4843     0.9708      
1303.4044   72.8748     0.9775      
1303.5568   74.6786     1.0         
1303.7092   76.0097     0.9998      
1303.8616   72.386      0.97        
1304.014    70.1181     0.9309      
1304.1664   67.5084     0.8868      
1304.3188   68.359      0.9012      
1304.4712   66.7439     0.8739      
1304.6236   63.1177     0.8127      
1304.776    57.3942     0.716       
1304.9284   54.9527     0.6748      
1305.0808   56.1444     0.6949      
1305.2332   54.2429     0.6628      
1305.3856   53.8237     0.6557      
1305.538    51.8069     0.6216      
1305.6904   54.0103     0.6588      
1305.8428   55.8508     0.6899      
1305.9952   57.1448     0.7118      
1306.1476   59.6178     0.7535      
1306.3      58.7753     0.7393      
1306.4524   60.8173     0.7738      
1306.6048   62.0959     0.7954      
1306.7572   63.1954     0.814       
1306.9096   66.0901     0.8629      
1307.062    63.4906     0.819       
1307.2144   63.7861     0.8239      
1307.3668   59.9148     0.7586      
1307.5192   59.9226     0.7587      
1307.6716   58.7633     0.7391      
1307.824    60.2312     0.7639      
1307.9764   61.4302     0.7842      
1308.1288   62.1292     0.796       
1308.2812   59.467      0.751       
1308.4336   59.8451     0.7574      
1308.586    59.0973     0.7448      
1308.7384   57.8843     0.7243      
1308.8908   54.8451     0.6729      
1309.0432   52.9713     0.6413      
1309.1956   52.6239     0.6354      
1309.348    51.3023     0.6131      
1309.5004   53.5072     0.6503      
1309.6528   54.0511     0.6595      
1309.8052   55.9445     0.6915      
1309.9576   52.2177     0.6286      
1310.11     50.8308     0.6051      
1310.2624   48.9551     0.5735      
1310.4148   49.6718     0.5856      
1310.5672   49.8195     0.5881      
1310.7196   50.9715     0.6075      
1310.872    54.8505     0.673       
1311.0244   58.0524     0.7271      
1311.1768   59.1372     0.7454      
1311.3292   62.5431     0.803       
1311.4816   62.541      0.8029      
1311.634    62.0403     0.7945      
1311.7864   57.8544     0.7238      
1311.9388   59.9445     0.7591      
1312.0912   61.931      0.7926      
1312.2436   63.1604     0.8134      
1312.396    63.3926     0.8173      
1312.5484   61.1462     0.7794      
1312.7008   62.9019     0.809       
1312.8532   63.328      0.8162      
1313.0056   68.211      0.8987      
1313.158    66.7048     0.8732      
1313.3104   66.2145     0.865       
1313.4628   64.3885     0.8341      
1313.6152   67.075      0.8795      
1313.7676   68.1632     0.8979      
1313.92     68.5296     0.9041      
1314.0724   66.879      0.8762      
1314.2248   66.339      0.8671      
1314.3772   67.1642     0.881       
1314.5296   66.7863     0.8746      
1314.682    66.5285     0.8703      
1314.8344   64.0938     0.8291      
1314.9868   67.7077     0.8902      
1315.1392   69.1729     0.9149      
1315.2916   69.177      0.915       
1315.444    68.6861     0.9067      
1315.5964   67.2644     0.8827      
1315.7488   67.3459     0.8841      
1315.9012   66.544      0.8705      
1316.0536   67.6944     0.89        
1316.206    68.6226     0.9056      
1316.3584   65.4739     0.8524      
1316.5108   63.6573     0.8218      
1316.6632   65.4588     0.8522      
1316.8156   65.1184     0.8464      
1316.968    65.8213     0.8583      
1317.1204   65.924      0.86        
1317.2728   67.0852     0.8797      
1317.4252   63.7957     0.8241      
1317.5776   61.4968     0.7853      
1317.73     61.1313     0.7791      
1317.8824   62.1113     0.7957      
1318.0348   61.567      0.7865      
1318.1872   60.85       0.7744      
1318.3396   59.5375     0.7522      
1318.492    55.648      0.6865      
1318.6444   54.6753     0.6701      
1318.7968   54.3726     0.665       
1318.9492   55.1886     0.6787      
1319.1016   53.8929     0.6569      
1319.254    52.7536     0.6376      
1319.4064   52.6837     0.6364      
1319.5588   51.4056     0.6148      
1319.7112   52.1488     0.6274      
1319.8636   53.0426     0.6425      
1320.016    54.4078     0.6656      
1320.1684   55.3697     0.6818      
1320.3208   55.144      0.678       
1320.4732   51.6725     0.6194      
1320.6256   49.6533     0.5853      
1320.778    46.8764     0.5384      
1320.9304   47.3615     0.5465      
1321.0828   45.0261     0.5071      
1321.2352   46.653      0.5346      
1321.3876   47.4914     0.5487      
1321.54     47.905      0.5557      
1321.6924   46.5973     0.5336      
1321.8448   45.0838     0.5081      
1321.9972   44.7297     0.5021      
1322.1496   46.404      0.5304      
1322.302    48.0072     0.5575      
1322.4544   46.5718     0.5332      
1322.6068   50.4007     0.5979      
1322.7592   50.4587     0.5989      
1322.9116   54.809      0.6723      
1323.064    52.2021     0.6283      
1323.2164   53.5617     0.6513      
1323.3688   52.0484     0.6257      
1323.5212   51.4719     0.616       
1323.6736   47.902      0.5557      
1323.826    49.322      0.5797      
1323.9784   49.8039     0.5878      
1324.1308   52.9515     0.641       
1324.2832   51.0105     0.6082      
1324.4356   49.3965     0.5809      
1324.588    49.5145     0.5829      
1324.7404   51.4148     0.615       
1324.8928   51.8353     0.6221      
1325.0452   51.7765     0.6211      
1325.1976   51.6298     0.6186      
1325.35     53.1289     0.644       
1325.5024   52.1732     0.6278      
1325.6548   54.0077     0.6588      
1325.8072   53.5904     0.6517      
1325.9596   54.5289     0.6676      
1326.112    53.9126     0.6572      
1326.2644   53.8193     0.6556      
1326.4168   54.9277     0.6743      
1326.5692   54.2508     0.6629      
1326.7216   55.0565     0.6765      
1326.874    54.8867     0.6736      
1327.0264   55.2793     0.6803      
1327.1788   56.7093     0.7044      
1327.3312   57.6208     0.7198      
1327.4836   56.7002     0.7043      
1327.636    59.4383     0.7505      
1327.7884   61.3878     0.7834      
1327.9408   63.2399     0.8147      
1328.0932   61.9912     0.7936      
1328.2456   59.0873     0.7446      
1328.398    57.1142     0.7113      
1328.5504   54.1308     0.6609      
1328.7028   53.1612     0.6445      
1328.8552   53.3451     0.6476      
1329.0076   57.5829     0.7192      
1329.16     62.1593     0.7965      
1329.3124   63.2498     0.8149      
1329.4648   61.9998     0.7938      
1329.6172   63.159      0.8134      
1329.7696   64.8694     0.8422      
1329.922    65.3673     0.8506      
1330.0744   64.5882     0.8375      
1330.2268   67.9663     0.8945      
1330.3792   69.336      0.9177      
1330.5316   67.9156     0.8937      
1330.684    65.571      0.8541      
1330.8364   64.3647     0.8337      
1330.9888   64.2595     0.8319      
1331.1412   64.8589     0.8421      
1331.2936   64.7073     0.8395      
1331.446    66.2099     0.8649      
1331.5984   66.2041     0.8648      
1331.7508   65.7766     0.8576      
1331.9032   65.9351     0.8602      
