#----------------------------------------------------------------------------
~VERSION INFORMATION
VERS.            2.0                  :CWLS LOG ASCII STANDARD -VERSION 2.0
WRAP.            NO                   :ONE LINE PER DEPTH STEP
#
#--------------------------------------------------------------------
~WELL INFORMATION
#MNEM .UNIT      DATA                 :DESCRIPTION OF MNEMONIC
#----------      ------------         -------------------------------
STRT  .m         902.1352             :START DEPTH
STEP  .m         0.1524               :STEP DEPTH
STOP  .m         2928.7504            :STOP DEPTH
NULL  .          -999.25              :NULL VALUE
COMP  .                               :COMPANY
WELL  .          22/15-3              :WELL
LOC   .                               :LOCATION - AREA
FLD   .          GBR_UNASSIGNED       :FIELD
CTRY  .          GBR                  :COUNTRY
DATE  .                               :WELL DATE
UWI   .          12000082036501                     :UWI
XWELL .m          614700.99            :X POS
YWELL .m          6383465.707          :Y POS
EDF   .          32.3088646176        :DERRICK FLOOR ELEVATION
#
#----------------------------------------------------------------------------
~CURVE INFORMATION
#MNEM.UNIT                                  : CURVE DESCRIPTION
#----------                                 -------------------------------
DEPT        .m                              : 1      DEPTH
GR          .API                            : 2      GR
V_Clay_all  .fract                          : 3      Volume
#
#----------------------------------------------------------------------------
~A          GR          V_Clay_all  
# ...
1166.7016   65.6662     0.8557      
1166.854    64.0448     0.8283      
1167.0064   66.2853     0.8662      
1167.1588   64.234      0.8315      
1167.3112   69.1085     0.9138      
1167.4636   68.1606     0.8978      
1167.616    69.01       0.9122      
1167.7684   66.0838     0.8627      
1167.9208   66.6888     0.873       
1168.0732   66.4704     0.8693      
1168.2256   66.664      0.8725      
1168.378    68.5494     0.9044      
1168.5304   70.1521     0.9315      
1168.6828   71.3488     0.9517      
1168.8352   70.8959     0.944       
1168.9876   68.679      0.9066      
1169.14     69.3808     0.9184      
1169.2924   66.36       0.8674      
1169.4448   65.6234     0.855       
1169.5972   64.3941     0.8342      
1169.7496   67.1299     0.8804      
1169.902    68.7266     0.9074      
1170.0544   66.9516     0.8774      
1170.2068   65.2304     0.8483      
1170.3592   67.8591     0.8927      
1170.5116   70.1156     0.9308      
1170.664    70.303      0.934       
1170.8164   69.705      0.9239      
1170.9688   67.4969     0.8866      
1171.1212   68.7754     0.9082      
1171.2736   65.2676     0.849       
1171.426    67.9893     0.8949      
1171.5784   66.9392     0.8772      
1171.7308   65.4732     0.8524      
1171.8832   63.0094     0.8108      
1172.0356   61.9623     0.7931      
1172.188    62.3081     0.799       
1172.3404   62.3047     0.7989      
1172.4928   61.7322     0.7893      
1172.6452   63.3331     0.8163      
1172.7976   65.7085     0.8564      
1172.95     68.2173     0.8988      
1173.1024   71.4396     0.9532      
1173.2548   71.3096     0.951       
1173.4072   71.6713     0.9571      
1173.5596   67.8148     0.892       
1173.712    68.3781     0.9015      
1173.8644   68.0457     0.8959      
1174.0168   69.3812     0.9184      
1174.1692   69.8852     0.927       
1174.3216   67.8581     0.8927      
1174.474    64.2247     0.8314      
1174.6264   60.4639     0.7678      
1174.7788   61.8768     0.7917      
1174.9312   66.8007     0.8749      
1175.0836   68.4647     0.903       
1175.236    68.9568     0.9113      
1175.3884   68.179      0.8981      
1175.5408   68.17       0.898       
1175.6932   65.7892     0.8578      
1175.8456   63.4405     0.8181      
1175.998    66.4645     0.8692      
1176.1504   65.3498     0.8504      
1176.3028   67.0092     0.8784      
1176.4552   67.194      0.8815      
1176.6076   69.4051     0.9188      
1176.76     70.2306     0.9328      
1176.9124   65.922      0.86        
1177.0648   65.0348     0.845       
1177.2172   61.6923     0.7886      
1177.3696   64.7149     0.8396      
1177.522    67.155      0.8808      
1177.6744   69.6335     0.9227      
1177.8268   66.3988     0.8681      
1177.9792   64.0922     0.8291      
1178.1316   65.2186     0.8481      
1178.284    68.2122     0.8987      
1178.4364   67.6364     0.889       
1178.5888   63.573      0.8203      
1178.7412   59.5152     0.7518      
1178.8936   62.8168     0.8076      
1179.046    65.8308     0.8585      
1179.1984   70.8622     0.9435      
1179.3508   69.7543     0.9247      
1179.5032   68.7654     0.908       
1179.6556   65.9136     0.8599      
1179.808    65.1825     0.8475      
1179.9604   64.3198     0.833       
1180.1128   63.7925     0.8241      
1180.2652   62.78       0.807       
1180.4176   62.3045     0.7989      
1180.57     65.879      0.8593      
1180.7224   68.7345     0.9075      
1180.8748   68.5832     0.905       
1181.0272   65.777      0.8576      
1181.1796   64.9787     0.8441      
1181.332    67.6494     0.8892      
1181.4844   68.7364     0.9075      
1181.6368   68.5243     0.904       
1181.7892   69.6061     0.9222      
1181.9416   69.0372     0.9126      
1182.094    66.5017     0.8698      
1182.2464   64.4346     0.8349      
1182.3988   61.562      0.7864      
1182.5512   63.3494     0.8166      
1182.7036   66.044      0.8621      
1182.856    69.665      0.9232      
1183.0084   70.0612     0.9299      
1183.1608   68.8535     0.9095      
1183.3132   65.0627     0.8455      
1183.4656   64.8849     0.8425      
1183.618    63.9981     0.8275      
1183.7704   66.3019     0.8664      
1183.9228   67.8989     0.8934      
1184.0752   66.9635     0.8776      
1184.2276   66.5094     0.8699      
1184.38     63.9428     0.8266      
1184.5324   62.5567     0.8032      
1184.6848   63.5569     0.8201      
1184.8372   63.6026     0.8208      
1184.9896   64.0126     0.8278      
1185.142    60.2379     0.764       
1185.2944   58.9011     0.7414      
1185.4468   60.9452     0.776       
1185.5992   67.2522     0.8825      
1185.7516   67.6379     0.889       
1185.904    64.7355     0.84        
1186.0564   62.658      0.8049      
1186.2088   66.101      0.863       
1186.3612   67.5982     0.8883      
1186.5136   65.7078     0.8564      
1186.666    59.9886     0.7598      
1186.8184   60.0879     0.7615      
1186.9708   61.8719     0.7916      
1187.1232   67.9184     0.8937      
1187.2756   71.394      0.9524      
1187.428    73.1465     0.982       
1187.5804   73.6019     0.9897      
1187.7328   71.6285     0.9564      
1187.8852   74.2191     0.9999      
1188.0376   73.3665     0.9856      
1188.19     75.2749     0.9995      
1188.3424   69.2698     0.9166      
1188.4948   67.7526     0.8909      
1188.6472   66.7071     0.8733      
1188.7996   68.1463     0.8976      
1188.952    68.9534     0.9112      
1189.1044   67.1705     0.8811      
1189.2568   67.7728     0.8913      
1189.4092   68.6607     0.9063      
1189.5616   69.9106     0.9274      
1189.714    69.2294     0.9159      
1189.8664   68.667      0.9064      
1190.0188   70.47       0.9368      
1190.1712   68.349      0.901       
1190.3236   68.616      0.9055      
1190.476    65.2434     0.8486      
1190.6284   65.5835     0.8543      
1190.7808   64.3685     0.8338      
1190.9332   63.2938     0.8156      
1191.0856   63.3303     0.8162      
1191.238    62.6539     0.8048      
1191.3904   64.9758     0.844       
1191.5428   62.6114     0.8041      
1191.6952   62.2712     0.7984      
1191.8476   61.1031     0.7786      
1192.0      64.4369     0.8349      
1192.1524   64.9833     0.8442      
1192.3048   66.0326     0.8619      
1192.4572   66.7992     0.8748      
1192.6096   69.2543     0.9163      
1192.762    70.4684     0.9368      
1192.9144   68.0157     0.8954      
1193.0668   64.2087     0.8311      
1193.2192   63.1735     0.8136      
1193.3716   65.1718     0.8473      
1193.524    65.2261     0.8483      
1193.6764   61.5933     0.7869      
1193.8288   61.7833     0.7901      
1193.9812   62.5843     0.8036      
1194.1336   63.1143     0.8126      
1194.286    60.3091     0.7652      
1194.4384   59.8782     0.7579      
1194.5908   59.1252     0.7452      
1194.7432   61.328      0.7824      
1194.8956   64.1361     0.8299      
1195.048    65.6303     0.8551      
1195.2004   65.9389     0.8603      
1195.3528   64.1728     0.8305      
1195.5052   65.1548     0.8471      
1195.6576   63.1687     0.8135      
1195.81     61.9157     0.7924      
1195.9624   63.4693     0.8186      
1196.1148   62.9586     0.81        
1196.2672   64.1435     0.83        
1196.4196   61.44       0.7843      
1196.572    63.5077     0.8192      
1196.7244   62.3141     0.7991      
1196.8768   65.6804     0.8559      
1197.0292   68.873      0.9099      
1197.1816   70.1209     0.9309      
1197.334    68.5882     0.905       
1197.4864   66.2234     0.8651      
1197.6388   68.1281     0.8973      
1197.7912   67.2873     0.8831      
1197.9436   65.1191     0.8465      
1198.096    61.9292     0.7926      
1198.2484   61.82       0.7907      
1198.4008   63.6068     0.8209      
1198.5532   65.8345     0.8585      
1198.7056   68.8025     0.9087      
1198.858    71.195      0.9491      
1199.0104   70.2494     0.9331      
1199.1628   68.6543     0.9062      
1199.3152   67.8919     0.8933      
1199.4676   66.15       0.8639      
1199.62     68.6613     0.9063      
