#----------------------------------------------------------------------------
~VERSION INFORMATION
VERS.            2.0                  :CWLS LOG ASCII STANDARD -VERSION 2.0
WRAP.            NO                   :ONE LINE PER DEPTH STEP
#
#--------------------------------------------------------------------
~WELL INFORMATION
#MNEM .UNIT      DATA                 :DESCRIPTION OF MNEMONIC
#----------      ------------         -------------------------------
STRT  .m         902.1352             :START DEPTH
STEP  .m         0.1524               :STEP DEPTH
STOP  .m         2928.7504            :STOP DEPTH
NULL  .          -999.25              :NULL VALUE
COMP  .                               :COMPANY
WELL  .          22/15-3              :WELL
LOC   .                               :LOCATION - AREA
FLD   .          GBR_UNASSIGNED       :FIELD
CTRY  .          GBR                  :COUNTRY
DATE  .                               :WELL DATE
UWI   .          12000082036501                     :UWI
XWELL .m          614700.99            :X POS
YWELL .m          6383465.707          :Y POS
EDF   .          32.3088646176        :DERRICK FLOOR ELEVATION
#
#----------------------------------------------------------------------------
~CURVE INFORMATION
#MNEM.UNIT                                  : CURVE DESCRIPTION
#----------                                 -------------------------------
DEPT        .m                              : 1      DEPTH
GR          .API                            : 2      GR
V_Clay_all  .fract                          : 3      Volume
#
#----------------------------------------------------------------------------
~A          GR          V_Clay_all  
# ...
2489.5336   39.6059     0.4156      
2489.686    40.0355     0.4228      
2489.8384   40.1139     0.4241      
2489.9908   42.0277     0.4565      
2490.1432   44.2076     0.4933      
2490.2956   45.9004     0.5219      
2490.448    44.4968     0.4982      
2490.6004   44.5242     0.4986      
2490.7528   45.4537     0.5143      
2490.9052   47.2866     0.5453      
2491.0576   46.9828     0.5402      
2491.21     46.289      0.5284      
2491.3624   45.8151     0.5204      
2491.5148   45.1699     0.5095      
2491.6672   44.4039     0.4966      
2491.8196   43.7703     0.4859      
2491.972    43.4447     0.4804      
2492.1244   44.7202     0.5019      
2492.2768   46.967      0.5399      
2492.4292   47.1365     0.5427      
2492.5816   46.1185     0.5256      
2492.734    44.7204     0.5019      
2492.8864   47.5396     0.5496      
2493.0388   49.9168     0.5897      
2493.1912   49.9927     0.591       
2493.3436   47.8911     0.5555      
2493.496    45.8484     0.521       
2493.6484   43.6298     0.4835      
2493.8008   40.2745     0.4269      
2493.9532   38.415      0.3955      
2494.1056   38.2831     0.3932      
2494.258    38.5098     0.3971      
2494.4104   38.727      0.4007      
2494.5628   39.5307     0.4143      
2494.7152   39.7717     0.4184      
2494.8676   39.2126     0.4089      
2495.02     37.4471     0.3791      
2495.1724   36.5556     0.364       
2495.3248   36.3977     0.3614      
2495.4772   38.2596     0.3928      
2495.6296   40.5808     0.432       
2495.782    40.8083     0.4359      
2495.9344   38.9714     0.4048      
2496.0868   38.0856     0.3899      
2496.2392   39.9212     0.4209      
2496.3916   40.6213     0.4327      
2496.544    37.0086     0.3717      
2496.6964   34.964      0.3372      
2496.8488   37.2072     0.3751      
2497.0012   43.8802     0.4878      
2497.1536   46.7676     0.5365      
2497.306    46.1571     0.5262      
2497.4584   44.748      0.5024      
2497.6108   47.0416     0.5411      
2497.7632   47.5626     0.5499      
2497.9156   48.2033     0.5608      
2498.068    46.3192     0.5289      
2498.2204   48.4046     0.5642      
2498.3728   49.8916     0.5893      
2498.5252   45.8475     0.521       
2498.6776   41.8431     0.4534      
2498.83     41.3287     0.4447      
2498.9824   46.3408     0.5293      
2499.1348   47.8923     0.5555      
2499.2872   45.4629     0.5145      
2499.4396   42.247      0.4602      
2499.592    40.7068     0.4342      
2499.7444   42.3535     0.462       
2499.8968   43.2555     0.4772      
2500.0492   46.3995     0.5303      
2500.2016   46.6803     0.535       
2500.354    46.2607     0.528       
2500.5064   41.5936     0.4491      
2500.6588   36.098      0.3563      
2500.8112   35.1056     0.3396      
2500.9636   39.9025     0.4206      
2501.116    46.7053     0.5355      
2501.2684   50.4537     0.5988      
2501.4208   51.3432     0.6138      
2501.5732   50.8231     0.605       
2501.7256   51.1537     0.6106      
2501.878    52.3336     0.6305      
2502.0304   54.6004     0.6688      
2502.1828   52.3101     0.6301      
2502.3352   43.0771     0.4742      
2502.4876   37.5742     0.3813      
2502.64     37.8774     0.3864      
2502.7924   43.5584     0.4823      
2502.9448   46.536      0.5326      
2503.0972   47.5624     0.5499      
2503.2496   48.5433     0.5665      
2503.402    47.4542     0.5481      
2503.5544   46.7523     0.5363      
2503.7068   46.9456     0.5395      
2503.8592   49.2969     0.5792      
2504.0116   47.0741     0.5417      
2504.164    44.246      0.4939      
2504.3164   41.9774     0.4556      
2504.4688   44.1108     0.4916      
2504.6212   44.1666     0.4926      
2504.7736   42.7922     0.4694      
2504.926    42.3237     0.4615      
2505.0784   44.1893     0.493       
2505.2308   46.5747     0.5333      
2505.3832   47.5591     0.5499      
2505.5356   48.1432     0.5598      
2505.688    47.9019     0.5557      
2505.8404   48.5487     0.5666      
2505.9928   48.5048     0.5659      
2506.1452   50.4928     0.5994      
2506.2976   48.7355     0.5698      
2506.45     48.3046     0.5625      
2506.6024   46.9109     0.5389      
2506.7548   51.4561     0.6157      
2506.9072   53.9598     0.658       
2507.0596   55.4343     0.6829      
2507.212    51.7288     0.6203      
2507.3644   48.6729     0.5687      
2507.5168   45.1273     0.5088      
2507.6692   45.1786     0.5097      
2507.8216   46.8129     0.5373      
2507.974    50.6395     0.6019      
2508.1264   50.9878     0.6078      
2508.2788   52.4809     0.633       
2508.4312   53.3642     0.6479      
2508.5836   54.7094     0.6706      
2508.736    54.7386     0.6711      
2508.8884   54.7178     0.6708      
2509.0408   57.5221     0.7182      
2509.1932   57.5585     0.7188      
2509.3456   56.8738     0.7072      
2509.498    55.5343     0.6846      
2509.6504   55.8384     0.6897      
2509.8028   55.8058     0.6892      
2509.9552   54.0338     0.6592      
2510.1076   51.6879     0.6196      
2510.26     49.9021     0.5895      
2510.4124   48.4104     0.5643      
2510.5648   47.6257     0.551       
2510.7172   47.7815     0.5536      
2510.8696   49.4574     0.5819      
2511.022    52.6312     0.6355      
2511.1744   54.1614     0.6614      
2511.3268   54.805      0.6723      
2511.4792   54.7424     0.6712      
2511.6316   53.7657     0.6547      
2511.784    51.241      0.6121      
2511.9364   49.6489     0.5852      
2512.0888   50.4829     0.5993      
2512.2412   51.8272     0.622       
2512.3936   52.6524     0.6359      
2512.546    53.1158     0.6437      
2512.6984   56.0606     0.6935      
2512.8508   57.486      0.7175      
2513.0032   57.1579     0.712       
2513.1556   55.7446     0.6881      
2513.308    55.9661     0.6919      
2513.4604   59.2533     0.7474      
2513.6128   58.4036     0.733       
2513.7652   56.9381     0.7083      
2513.9176   51.283      0.6128      
2514.07     54.6505     0.6697      
2514.2224   57.4268     0.7165      
2514.3748   61.2395     0.7809      
2514.5272   55.8098     0.6892      
2514.6796   49.7514     0.5869      
2514.832    44.9929     0.5065      
2514.9844   43.7458     0.4855      
2515.1368   41.4148     0.4461      
2515.2892   40.4979     0.4306      
2515.4416   40.4498     0.4298      
2515.594    40.5004     0.4307      
2515.7464   40.5576     0.4316      
2515.8988   39.4905     0.4136      
2516.0512   41.3701     0.4454      
2516.2036   41.2255     0.4429      
2516.356    40.4873     0.4305      
2516.5084   38.754      0.4012      
2516.6608   38.993      0.4052      
2516.8132   39.3036     0.4105      
2516.9656   39.103      0.4071      
2517.118    39.3533     0.4113      
2517.2704   39.5317     0.4143      
2517.4228   41.2617     0.4435      
2517.5752   42.5914     0.466       
2517.7276   45.746      0.5193      
2517.88     48.9838     0.5739      
2518.0324   49.5057     0.5828      
2518.1848   49.1853     0.5774      
2518.3372   45.0195     0.507       
2518.4896   43.2513     0.4771      
2518.642    41.7964     0.4526      
2518.7944   41.3667     0.4453      
2518.9468   42.5946     0.466       
2519.0992   43.4434     0.4804      
2519.2516   46.4966     0.5319      
2519.404    44.7569     0.5026      
2519.5564   40.9901     0.4389      
2519.7088   37.0256     0.372       
2519.8612   37.3779     0.3779      
2520.0136   39.3936     0.412       
2520.166    39.5008     0.4138      
2520.3184   37.6814     0.3831      
2520.4708   34.664      0.3321      
2520.6232   34.56       0.3303      
2520.7756   38.2226     0.3922      
2520.928    46.9193     0.5391      
2521.0804   50.9642     0.6074      
2521.2328   50.455      0.5988      
2521.3852   45.4801     0.5148      
2521.5376   41.4269     0.4463      
2521.69     39.7483     0.418       
2521.8424   39.2218     0.4091      
2521.9948   39.9494     0.4214      
2522.1472   40.6357     0.433       
2522.2996   41.1768     0.4421      
2522.452    41.0308     0.4396      
