#----------------------------------------------------------------------------
~VERSION INFORMATION
VERS.            2.0                  :CWLS LOG ASCII STANDARD -VERSION 2.0
WRAP.            NO                   :ONE LINE PER DEPTH STEP
#
#--------------------------------------------------------------------
~WELL INFORMATION
#MNEM .UNIT      DATA                 :DESCRIPTION OF MNEMONIC
#----------      ------------         -------------------------------
STRT  .m         902.1352             :START DEPTH
STEP  .m         0.1524               :STEP DEPTH
STOP  .m         2928.7504            :STOP DEPTH
NULL  .          -999.25              :NULL VALUE
COMP  .                               :COMPANY
WELL  .          22/15-3              :WELL
LOC   .                               :LOCATION - AREA
FLD   .          GBR_UNASSIGNED       :FIELD
CTRY  .          GBR                  :COUNTRY
DATE  .                               :WELL DATE
UWI   .          12000082036501                     :UWI
XWELL .m          614700.99            :X POS
YWELL .m          6383465.707          :Y POS
EDF   .          32.3088646176        :DERRICK FLOOR ELEVATION
#
#----------------------------------------------------------------------------
~CURVE INFORMATION
#MNEM.UNIT                                  : CURVE DESCRIPTION
#----------                                 -------------------------------
DEPT        .m                              : 1      DEPTH
GR          .API                            : 2      GR
V_Clay_all  .fract                          : 3      Volume
#
#----------------------------------------------------------------------------
~A          GR          V_Clay_all  
# ...
2621.8168   36.5897     0.3646      
2621.9692   36.9641     0.3709      
2622.1216   37.7626     0.3844      
2622.274    37.0643     0.3726      
2622.4264   38.2514     0.3927      
2622.5788   36.7971     0.3681      
2622.7312   38.7928     0.4018      
2622.8836   39.6568     0.4164      
2623.036    41.2092     0.4426      
2623.1884   41.7686     0.4521      
2623.3408   42.3064     0.4612      
2623.4932   43.3792     0.4793      
2623.6456   43.571      0.4825      
2623.798    41.5042     0.4476      
2623.9504   39.542      0.4145      
2624.1028   39.4277     0.4126      
2624.2552   39.9757     0.4218      
2624.4076   41.8024     0.4527      
2624.56     41.0035     0.4392      
2624.7124   40.4213     0.4293      
2624.8648   40.6672     0.4335      
2625.0172   40.7042     0.4341      
2625.1696   41.4236     0.4463      
2625.322    40.4985     0.4306      
2625.4744   41.9302     0.4548      
2625.6268   41.7622     0.452       
2625.7792   43.1702     0.4758      
2625.9316   42.9873     0.4727      
2626.084    43.1631     0.4756      
2626.2364   41.8791     0.454       
2626.3888   40.8196     0.4361      
2626.5412   40.0461     0.423       
2626.6936   40.3111     0.4275      
2626.846    40.5578     0.4316      
2626.9984   41.4193     0.4462      
2627.1508   41.413      0.4461      
2627.3032   40.962      0.4385      
2627.4556   40.633      0.4329      
2627.608    41.9816     0.4557      
2627.7604   45.2415     0.5107      
2627.9128   45.8342     0.5208      
2628.0652   42.8032     0.4696      
2628.2176   40.5363     0.4313      
2628.37     40.882      0.4371      
2628.5224   44.4868     0.498       
2628.6748   48.0444     0.5581      
2628.8272   48.5948     0.5674      
2628.9796   46.4495     0.5311      
2629.132    41.3854     0.4456      
2629.2844   39.7979     0.4188      
2629.4368   39.7157     0.4174      
2629.5892   39.9047     0.4206      
2629.7416   39.7806     0.4185      
2629.894    40.6458     0.4331      
2630.0464   42.8938     0.4711      
2630.1988   43.7817     0.4861      
2630.3512   43.3392     0.4786      
2630.5036   41.7621     0.452       
2630.656    39.8014     0.4189      
2630.8084   39.747      0.4179      
2630.9608   40.5088     0.4308      
2631.1132   42.2957     0.461       
2631.2656   41.6779     0.4506      
2631.418    38.9117     0.4038      
2631.5704   35.3649     0.3439      
2631.7228   35.04       0.3385      
2631.8752   35.7353     0.3502      
2632.0276   38.4843     0.3966      
2632.18     39.2197     0.409       
2632.3324   42.143      0.4584      
2632.4848   44.3893     0.4964      
2632.6372   44.1548     0.4924      
2632.7896   41.4999     0.4476      
2632.942    38.6522     0.3995      
2633.0944   38.1909     0.3917      
2633.2468   38.9196     0.404       
2633.3992   41.3693     0.4453      
2633.5516   43.6413     0.4837      
2633.704    45.046      0.5074      
2633.8564   48.0071     0.5575      
2634.0088   52.5583     0.6343      
2634.1612   53.7692     0.6548      
2634.3136   50.7684     0.6041      
2634.466    47.2386     0.5445      
2634.6184   46.2094     0.5271      
2634.7708   46.9508     0.5396      
2634.9232   47.2071     0.5439      
2635.0756   44.3493     0.4957      
2635.228    42.038      0.4566      
2635.3804   41.338      0.4448      
2635.5328   42.3963     0.4627      
2635.6852   42.1045     0.4578      
2635.8376   39.7289     0.4176      
2635.99     38.6856     0.4         
2636.1424   39.9485     0.4214      
2636.2948   40.3        0.4273      
2636.4472   42.4755     0.464       
2636.5996   42.3352     0.4617      
2636.752    42.734      0.4684      
2636.9044   36.9751     0.3711      
2637.0568   34.1252     0.323       
2637.2092   34.1489     0.3234      
2637.3616   39.2352     0.4093      
2637.514    43.6154     0.4833      
2637.6664   44.2896     0.4947      
2637.8188   42.8662     0.4706      
2637.9712   39.3239     0.4108      
2638.1236   38.2887     0.3933      
2638.276    38.1213     0.3905      
2638.4284   41.5441     0.4483      
2638.5808   44.42       0.4969      
2638.7332   47.5206     0.5492      
2638.8856   48.4291     0.5646      
2639.038    48.3195     0.5627      
2639.1904   46.823      0.5375      
2639.3428   45.9335     0.5224      
2639.4952   45.3009     0.5117      
2639.6476   45.6681     0.5179      
2639.8      45.7672     0.5196      
2639.9524   44.4801     0.4979      
2640.1048   43.5898     0.4828      
2640.2572   41.0287     0.4396      
2640.4096   40.5594     0.4317      
2640.562    40.5944     0.4323      
2640.7144   39.3783     0.4117      
2640.8668   38.1313     0.3907      
2641.0192   39.2107     0.4089      
2641.1716   42.332      0.4616      
2641.324    43.6106     0.4832      
2641.4764   43.17       0.4758      
2641.6288   41.6353     0.4498      
2641.7812   41.2396     0.4432      
2641.9336   41.1349     0.4414      
2642.086    41.9074     0.4544      
2642.2384   42.0592     0.457       
2642.3908   41.307      0.4443      
2642.5432   41.7033     0.451       
2642.6956   42.3069     0.4612      
2642.848    46.7907     0.5369      
2643.0004   51.8845     0.6229      
2643.1528   56.4925     0.7008      
2643.3052   57.8306     0.7234      
2643.4576   57.6173     0.7198      
2643.61     56.549      0.7017      
2643.7624   53.918      0.6573      
2643.9148   51.7079     0.62        
2644.0672   48.9996     0.5742      
2644.2196   46.1728     0.5265      
2644.372    44.2104     0.4933      
2644.5244   44.8771     0.5046      
2644.6768   48.9135     0.5728      
2644.8292   51.9976     0.6248      
2644.9816   53.7982     0.6553      
2645.134    51.0429     0.6087      
2645.2864   46.8028     0.5371      
2645.4388   40.854      0.4366      
2645.5912   39.9732     0.4218      
2645.7436   41.343      0.4449      
2645.896    43.253      0.4772      
2646.0484   42.7083     0.468       
2646.2008   42.8199     0.4698      
2646.3532   42.8782     0.4708      
2646.5056   43.1135     0.4748      
2646.658    40.4556     0.4299      
2646.8104   38.0918     0.39        
2646.9628   37.4487     0.3791      
2647.1152   37.7986     0.385       
2647.2676   37.0401     0.3722      
2647.42     35.969      0.3541      
2647.5724   35.6809     0.3493      
2647.7248   38.9805     0.405       
2647.8772   42.5246     0.4649      
2648.0296   44.5142     0.4985      
2648.182    42.156      0.4586      
2648.3344   39.9502     0.4214      
2648.4868   37.9193     0.3871      
2648.6392   38.2209     0.3922      
2648.7916   39.1706     0.4082      
2648.944    39.846      0.4196      
2649.0964   39.561      0.4148      
2649.2488   39.2193     0.409       
2649.4012   38.2017     0.3919      
2649.5536   37.9232     0.3871      
2649.706    39.05       0.4062      
2649.8584   41.377      0.4455      
2650.0108   42.945      0.472       
2650.1632   42.7044     0.4679      
2650.3156   43.7508     0.4856      
2650.468    47.65       0.5514      
2650.6204   49.8509     0.5886      
2650.7728   49.6868     0.5858      
2650.9252   46.6585     0.5347      
2651.0776   45.4186     0.5137      
2651.23     47.1154     0.5424      
2651.3824   48.9396     0.5732      
2651.5348   48.2826     0.5621      
2651.6872   48.1125     0.5592      
2651.8396   45.7368     0.5191      
2651.992    46.3936     0.5302      
2652.1444   45.8548     0.5211      
2652.2968   47.83       0.5545      
2652.4492   50.4036     0.5979      
2652.6016   51.257      0.6123      
2652.754    52.8084     0.6385      
2652.9064   52.9755     0.6414      
2653.0588   55.006      0.6757      
2653.2112   55.7839     0.6888      
2653.3636   56.1561     0.6951      
2653.516    55.2589     0.6799      
2653.6684   50.7115     0.6031      
2653.8208   49.171      0.5771      
2653.9732   48.8373     0.5715      
2654.1256   53.8497     0.6561      
2654.278    55.4728     0.6835      
2654.4304   55.3452     0.6814      
2654.5828   52.16       0.6276      
2654.7352   50.495      0.5995      
