#----------------------------------------------------------------------------
~VERSION INFORMATION
VERS.            2.0                  :CWLS LOG ASCII STANDARD -VERSION 2.0
WRAP.            NO                   :ONE LINE PER DEPTH STEP
#
#--------------------------------------------------------------------
~WELL INFORMATION
#MNEM .UNIT      DATA                 :DESCRIPTION OF MNEMONIC
#----------      ------------         -------------------------------
STRT  .m         902.1352             :START DEPTH
STEP  .m         0.1524               :STEP DEPTH
STOP  .m         2928.7504            :STOP DEPTH
NULL  .          -999.25              :NULL VALUE
COMP  .                               :COMPANY
WELL  .          22/15-3              :WELL
LOC   .                               :LOCATION - AREA
FLD   .          GBR_UNASSIGNED       :FIELD
CTRY  .          GBR                  :COUNTRY
DATE  .                               :WELL DATE
UWI   .          12000082036501                     :UWI
XWELL .m          614700.99            :X POS
YWELL .m          6383465.707          :Y POS
EDF   .          32.3088646176        :DERRICK FLOOR ELEVATION
#
#----------------------------------------------------------------------------
~CURVE INFORMATION
#MNEM.UNIT                                  : CURVE DESCRIPTION
#----------                                 -------------------------------
DEPT        .m                              : 1      DEPTH
GR          .API                            : 2      GR
V_Clay_all  .fract                          : 3      Volume
#
#----------------------------------------------------------------------------
~A          GR          V_Clay_all  
# ...
1034.4184   62.241      0.7978      
1034.5708   59.2986     0.7482      
1034.7232   58.5447     0.7354      
1034.8756   59.7007     0.7549      
1035.028    60.6398     0.7708      
1035.1804   60.7675     0.773       
1035.3328   58.6931     0.7379      
1035.4852   56.3036     0.6976      
1035.6376   56.2165     0.6961      
1035.79     55.8054     0.6892      
1035.9424   57.1474     0.7118      
1036.0948   59.0308     0.7436      
1036.2472   61.4165     0.7839      
1036.3996   59.9078     0.7584      
1036.552    58.8931     0.7413      
1036.7044   60.4306     0.7673      
1036.8568   65.0013     0.8445      
1037.0092   65.2471     0.8486      
1037.1616   61.549      0.7862      
1037.314    57.6361     0.7201      
1037.4664   59.253      0.7474      
1037.6188   62.3903     0.8004      
1037.7712   68.0585     0.8961      
1037.9236   68.4744     0.9031      
1038.076    67.8375     0.8924      
1038.2284   64.6353     0.8383      
1038.3808   63.0008     0.8107      
1038.5332   61.9869     0.7936      
1038.6856   62.2967     0.7988      
1038.838    62.5677     0.8034      
1038.9904   65.5973     0.8545      
1039.1428   63.6863     0.8223      
1039.2952   65.3348     0.8501      
1039.4476   62.6989     0.8056      
1039.6      62.0103     0.794       
1039.7524   61.2891     0.7818      
1039.9048   63.1789     0.8137      
1040.0572   66.6877     0.8729      
1040.2096   65.5597     0.8539      
1040.362    62.7783     0.8069      
1040.5144   61.8144     0.7906      
1040.6668   58.6146     0.7366      
1040.8192   58.2344     0.7302      
1040.9716   56.1252     0.6946      
1041.124    56.6822     0.704       
1041.2764   56.0657     0.6936      
1041.4288   56.4514     0.7001      
1041.5812   56.4224     0.6996      
1041.7336   60.5453     0.7692      
1041.886    59.5103     0.7517      
1042.0384   64.3344     0.8332      
1042.1908   64.3253     0.8331      
1042.3432   67.1925     0.8815      
1042.4956   64.9663     0.8439      
1042.648    62.6702     0.8051      
1042.8004   60.6827     0.7715      
1042.9528   61.0029     0.7769      
1043.1052   63.5625     0.8202      
1043.2576   63.1973     0.814       
1043.41     60.2466     0.7642      
1043.5624   55.5439     0.6847      
1043.7148   55.6768     0.687       
1043.8672   57.6448     0.7202      
1044.0196   58.6846     0.7378      
1044.172    59.7891     0.7564      
1044.3244   59.6749     0.7545      
1044.4768   59.6432     0.754       
1044.6292   58.3412     0.732       
1044.7816   59.3263     0.7486      
1044.934    61.3734     0.7832      
1045.0864   63.2159     0.8143      
1045.2388   66.2931     0.8663      
1045.3912   64.1712     0.8304      
1045.5436   64.4433     0.835       
1045.696    65.5192     0.8532      
1045.8484   68.573      0.9048      
1046.0008   70.2168     0.9326      
1046.1532   65.0029     0.8445      
1046.3056   66.8069     0.875       
1046.458    65.4498     0.852       
1046.6104   66.0502     0.8622      
1046.7628   61.6409     0.7877      
1046.9152   62.2746     0.7984      
1047.0676   63.4991     0.8191      
1047.22     64.3422     0.8333      
1047.3724   64.25       0.8318      
1047.5248   64.7715     0.8406      
1047.6772   64.4936     0.8359      
1047.8296   60.5609     0.7695      
1047.982    57.9173     0.7248      
1048.1344   55.8116     0.6893      
1048.2868   58.8931     0.7413      
1048.4392   57.9033     0.7246      
1048.5916   61.1651     0.7797      
1048.744    61.3442     0.7827      
1048.8964   63.9876     0.8273      
1049.0488   63.1605     0.8134      
1049.2012   63.8957     0.8258      
1049.3536   61.942      0.7928      
1049.506    63.8103     0.8244      
1049.6584   61.9452     0.7929      
1049.8108   64.0313     0.8281      
1049.9632   63.6322     0.8213      
1050.1156   63.4025     0.8175      
1050.268    60.0959     0.7616      
1050.4204   58.2902     0.7311      
1050.5728   61.8935     0.792       
1050.7252   64.4501     0.8352      
1050.8776   67.0775     0.8795      
1051.03     65.2991     0.8495      
1051.1824   67.0802     0.8796      
1051.3348   64.8997     0.8428      
1051.4872   63.01       0.8108      
1051.6396   59.435      0.7505      
1051.792    58.8921     0.7413      
1051.9444   59.1688     0.746       
1052.0968   62.0574     0.7947      
1052.2492   64.7863     0.8408      
1052.4016   66.4267     0.8685      
1052.554    63.8894     0.8257      
1052.7064   61.9797     0.7934      
1052.8588   61.8855     0.7918      
1053.0112   65.3874     0.851       
1053.1636   65.884      0.8594      
1053.316    63.9718     0.8271      
1053.4684   62.0546     0.7947      
1053.6208   60.2775     0.7647      
1053.7732   61.4155     0.7839      
1053.9256   59.396      0.7498      
1054.078    57.8488     0.7237      
1054.2304   57.159      0.712       
1054.3828   56.5478     0.7017      
1054.5352   60.5206     0.7688      
1054.6876   59.8281     0.7571      
1054.84     61.3061     0.7821      
1054.9924   61.3097     0.7821      
1055.1448   63.4245     0.8178      
1055.2972   64.0912     0.8291      
1055.4496   62.7716     0.8068      
1055.602    63.2026     0.8141      
1055.7544   61.4296     0.7841      
1055.9068   63.3351     0.8163      
1056.0592   61.6886     0.7885      
1056.2116   65.1119     0.8463      
1056.364    67.0056     0.8783      
1056.5164   68.4397     0.9025      
1056.6688   66.5184     0.8701      
1056.8212   61.4771     0.7849      
1056.9736   60.8843     0.7749      
1057.126    60.5485     0.7693      
1057.2784   61.0817     0.7783      
1057.4308   61.4602     0.7847      
1057.5832   62.8812     0.8087      
1057.7356   64.6604     0.8387      
1057.888    61.5931     0.7869      
1058.0404   61.805      0.7905      
1058.1928   58.9231     0.7418      
1058.3452   61.879      0.7917      
1058.4976   61.8865     0.7919      
1058.65     65.4273     0.8517      
1058.8024   64.9331     0.8433      
1058.9548   63.9561     0.8268      
1059.1072   61.8473     0.7912      
1059.2596   60.2546     0.7643      
1059.412    62.9448     0.8097      
1059.5644   62.5148     0.8025      
1059.7168   65.1102     0.8463      
1059.8692   62.8705     0.8085      
1060.0216   62.3112     0.799       
1060.174    65.745      0.857       
1060.3264   65.6607     0.8556      
1060.4788   66.8604     0.8759      
1060.6312   61.0368     0.7775      
1060.7836   58.8886     0.7412      
1060.936    57.1523     0.7119      
1061.0884   58.4546     0.7339      
1061.2408   57.6741     0.7207      
1061.3932   58.9679     0.7426      
1061.5456   59.9443     0.7591      
1061.698    62.9541     0.8099      
1061.8504   63.0355     0.8113      
1062.0028   62.1278     0.7959      
1062.1552   60.3345     0.7656      
1062.3076   61.1447     0.7793      
1062.46     60.8893     0.775       
1062.6124   63.6954     0.8224      
1062.7648   64.2285     0.8314      
1062.9172   65.5121     0.8531      
1063.0696   64.8837     0.8425      
1063.222    63.9898     0.8274      
1063.3744   60.6056     0.7702      
1063.5268   59.7727     0.7562      
1063.6792   60.4065     0.7669      
1063.8316   61.7258     0.7891      
1063.984    61.1097     0.7787      
1064.1364   60.9444     0.776       
1064.2888   61.6782     0.7883      
1064.4412   60.9834     0.7766      
1064.5936   61.5273     0.7858      
1064.746    63.0191     0.811       
1064.8984   65.4494     0.852       
1065.0508   66.536      0.8704      
1065.2032   64.7962     0.841       
1065.3556   64.3082     0.8328      
1065.508    60.2057     0.7635      
1065.6604   59.1472     0.7456      
1065.8128   58.8981     0.7414      
1065.9652   58.991      0.743       
1066.1176   58.8012     0.7398      
1066.27     55.7755     0.6887      
1066.4224   56.7191     0.7046      
1066.5748   56.7745     0.7055      
1066.7272   59.9991     0.76        
1066.8796   60.3471     0.7659      
1067.032    61.5701     0.7865      
1067.1844   62.0605     0.7948      
1067.3368   62.2275     0.7976      
