#----------------------------------------------------------------------------
~VERSION INFORMATION
VERS.            2.0                  :CWLS LOG ASCII STANDARD -VERSION 2.0
WRAP.            NO                   :ONE LINE PER DEPTH STEP
#
#--------------------------------------------------------------------
~WELL INFORMATION
#MNEM .UNIT      DATA                 :DESCRIPTION OF MNEMONIC
#----------      ------------         -------------------------------
STRT  .m         902.1352             :START DEPTH
STEP  .m         0.1524               :STEP DEPTH
STOP  .m         2928.7504            :STOP DEPTH
NULL  .          -999.25              :NULL VALUE
COMP  .                               :COMPANY
WELL  .          22/15-3              :WELL
LOC   .                               :LOCATION - AREA
FLD   .          GBR_UNASSIGNED       :FIELD
CTRY  .          GBR                  :COUNTRY
DATE  .                               :WELL DATE
UWI   .          12000082036501                     :UWI
XWELL .m          614700.99            :X POS
YWELL .m          6383465.707          :Y POS
EDF   .          32.3088646176        :DERRICK FLOOR ELEVATION
#
#----------------------------------------------------------------------------
~CURVE INFORMATION
#MNEM.UNIT                                  : CURVE DESCRIPTION
#----------                                 -------------------------------
DEPT        .m                              : 1      DEPTH
GR          .API                            : 2      GR
V_Clay_all  .fract                          : 3      Volume
#
#----------------------------------------------------------------------------
~A          GR          V_Clay_all  
# ...
1960.4008   59.263      0.7476      
1960.5532   58.8019     0.7398      
1960.7056   57.6254     0.7199      
1960.858    59.5738     0.7528      
1961.0104   60.4743     0.768       
1961.1628   60.0988     0.7617      
1961.3152   59.6349     0.7538      
1961.4676   56.9126     0.7079      
1961.62     56.6099     0.7027      
1961.7724   55.0412     0.6763      
1961.9248   55.1153     0.6775      
1962.0772   54.076      0.6599      
1962.2296   54.6842     0.6702      
1962.382    55.4231     0.6827      
1962.5344   57.9427     0.7253      
1962.6868   59.213      0.7467      
1962.8392   59.4254     0.7503      
1962.9916   59.7059     0.755       
1963.144    56.9792     0.709       
1963.2964   58.4596     0.734       
1963.4488   57.0026     0.7094      
1963.6012   57.8917     0.7244      
1963.7536   56.4997     0.7009      
1963.906    58.2205     0.7299      
1964.0584   58.326      0.7317      
1964.2108   57.6608     0.7205      
1964.3632   57.1786     0.7124      
1964.5156   59.6922     0.7548      
1964.668    60.2335     0.7639      
1964.8204   59.7672     0.7561      
1964.9728   60.0117     0.7602      
1965.1252   60.2775     0.7647      
1965.2776   59.8035     0.7567      
1965.43     58.0806     0.7276      
1965.5824   58.4785     0.7343      
1965.7348   58.5058     0.7348      
1965.8872   57.0618     0.7104      
1966.0396   56.775      0.7055      
1966.192    56.534      0.7015      
1966.3444   56.1484     0.695       
1966.4968   54.8167     0.6725      
1966.6492   53.0834     0.6432      
1966.8016   54.5687     0.6683      
1966.954    55.7009     0.6874      
1967.1064   57.2992     0.7144      
1967.2588   57.7772     0.7225      
1967.4112   56.4461     0.7         
1967.5636   59.8149     0.7569      
1967.716    60.0281     0.7605      
1967.8684   62.647      0.8047      
1968.0208   59.8538     0.7575      
1968.1732   61.0518     0.7778      
1968.3256   58.8397     0.7404      
1968.478    59.6272     0.7537      
1968.6304   57.8575     0.7238      
1968.7828   59.4491     0.7507      
1968.9352   56.8739     0.7072      
1969.0876   55.5378     0.6846      
1969.24     55.4241     0.6827      
1969.3924   60.3253     0.7655      
1969.5448   62.3723     0.8001      
1969.6972   58.8333     0.7403      
1969.8496   55.679      0.687       
1970.002    56.5866     0.7024      
1970.1544   59.1833     0.7462      
1970.3068   58.2123     0.7298      
1970.4592   57.1746     0.7123      
1970.6116   58.4844     0.7344      
1970.764    59.3255     0.7486      
1970.9164   59.0869     0.7446      
1971.0688   57.7215     0.7215      
1971.2212   57.7963     0.7228      
1971.3736   57.9241     0.7249      
1971.526    56.8414     0.7067      
1971.6784   59.0001     0.7431      
1971.8308   58.259      0.7306      
1971.9832   60.5496     0.7693      
1972.1356   59.2705     0.7477      
1972.288    60.4        0.7668      
1972.4404   59.7981     0.7566      
1972.5928   60.9675     0.7763      
1972.7452   59.6391     0.7539      
1972.8976   54.9528     0.6748      
1973.05     51.5487     0.6173      
1973.2024   49.3994     0.581       
1973.3548   52.8859     0.6399      
1973.5072   53.633      0.6525      
1973.6596   60.1545     0.7626      
1973.812    63.8819     0.8256      
1973.9644   68.7073     0.9071      
1974.1168   65.7579     0.8572      
1974.2692   64.44       0.835       
1974.4216   64.0395     0.8282      
1974.574    64.1344     0.8298      
1974.7264   61.8438     0.7911      
1974.8788   58.6065     0.7365      
1975.0312   56.7661     0.7054      
1975.1836   55.7872     0.6889      
1975.336    54.3938     0.6653      
1975.4884   56.5647     0.702       
1975.6408   60.2067     0.7635      
1975.7932   62.276      0.7984      
1975.9456   63.2543     0.815       
1976.098    60.681      0.7715      
1976.2504   63.2692     0.8152      
1976.4028   65.8228     0.8583      
1976.5552   69.2852     0.9168      
1976.7076   67.999      0.8951      
1976.86     63.7021     0.8225      
1977.0124   59.0604     0.7441      
1977.1648   58.6513     0.7372      
1977.3172   60.1134     0.7619      
1977.4696   62.54       0.8029      
1977.622    62.2271     0.7976      
1977.7744   64.564      0.8371      
1977.9268   66.6228     0.8719      
1978.0792   68.0405     0.8958      
1978.2316   66.9542     0.8774      
1978.384    65.2563     0.8488      
1978.5364   65.3301     0.85        
1978.6888   62.803      0.8073      
1978.8412   61.1907     0.7801      
1978.9936   58.9791     0.7428      
1979.146    59.0343     0.7437      
1979.2984   61.069      0.7781      
1979.4508   61.3655     0.7831      
1979.6032   62.613      0.8041      
1979.7556   59.7258     0.7554      
1979.908    58.7864     0.7395      
1980.0604   56.1394     0.6948      
1980.2128   55.2372     0.6796      
1980.3652   53.5014     0.6502      
1980.5176   54.3537     0.6646      
1980.67     57.0643     0.7104      
1980.8224   61.9965     0.7937      
1980.9748   63.0024     0.8107      
1981.1272   62.4258     0.801       
1981.2796   58.1315     0.7284      
1981.432    57.1547     0.7119      
1981.5844   56.7219     0.7046      
1981.7368   58.5848     0.7361      
1981.8892   59.6302     0.7538      
1982.0416   60.7039     0.7719      
1982.194    59.6316     0.7538      
1982.3464   58.4595     0.734       
1982.4988   59.8075     0.7567      
1982.6512   59.767      0.7561      
1982.8036   63.9605     0.8269      
1982.956    61.636      0.7876      
1983.1084   63.0174     0.811       
1983.2608   61.1713     0.7798      
1983.4132   61.993      0.7937      
1983.5656   62.7545     0.8065      
1983.718    62.202      0.7972      
1983.8704   63.4706     0.8186      
1984.0228   61.7539     0.7896      
1984.1752   60.9143     0.7754      
1984.3276   59.0134     0.7433      
1984.48     61.0946     0.7785      
1984.6324   63.7078     0.8226      
1984.7848   64.898      0.8427      
1984.9372   62.2572     0.7981      
1985.0896   60.3231     0.7655      
1985.242    57.765      0.7223      
1985.3944   58.3159     0.7316      
1985.5468   61.913      0.7923      
1985.6992   67.1481     0.8807      
1985.8516   68.8055     0.9087      
1986.004    67.2391     0.8823      
1986.1564   67.217      0.8819      
1986.3088   68.8162     0.9089      
1986.4612   68.3786     0.9015      
1986.6136   67.9232     0.8938      
1986.766    68.7478     0.9077      
1986.9184   69.6444     0.9229      
1987.0708   71.2779     0.9505      
1987.2232   72.0262     0.9631      
1987.3756   72.2965     0.9677      
1987.528    71.9518     0.9619      
1987.6804   73.4966     0.9879      
1987.8328   73.7769     0.9927      
1987.9852   72.9509     0.9787      
1988.1376   71.1964     0.9491      
1988.29     72.4992     0.9706      
1988.4424   74.7918     0.999       
1988.5948   69.9772     0.9293      
1988.7472   62.4301     0.801       
1988.8996   58.2102     0.7298      
1989.052    61.1517     0.7795      
1989.2044   68.6981     0.9066      
1989.3568   74.7475     1.0         
1989.5092   75.5371     1.0         
1989.6616   76.199      0.9986      
1989.814    71.3499     0.9517      
1989.9664   71.4277     0.953       
1990.1188   73.9556     0.9957      
1990.2712   73.724      0.9917      
1990.4236   74.3422     0.9985      
1990.576    71.0946     0.9474      
1990.7284   71.0116     0.946       
1990.8808   72.905      0.978       
1991.0332   72.5786     0.9717      
1991.1856   75.6331     0.9995      
1991.338    73.0385     0.9803      
1991.4904   72.7709     0.9757      
1991.6428   72.6729     0.974       
1991.7952   72.1253     0.9648      
1991.9476   71.5746     0.9555      
1992.1      69.7282     0.9243      
1992.2524   70.9417     0.9448      
1992.4048   71.2241     0.9493      
1992.5572   75.7114     1.0         
1992.7096   77.4261     1.0         
1992.862    80.3417     1.0         
1993.0144   82.4624     1.0         
1993.1668   84.7497     1.0         
1993.3192   87.3545     1.0         
