#----------------------------------------------------------------------------
~VERSION INFORMATION
VERS.            2.0                  :CWLS LOG ASCII STANDARD -VERSION 2.0
WRAP.            NO                   :ONE LINE PER DEPTH STEP
#
#--------------------------------------------------------------------
~WELL INFORMATION
#MNEM .UNIT      DATA                 :DESCRIPTION OF MNEMONIC
#----------      ------------         -------------------------------
STRT  .m         902.1352             :START DEPTH
STEP  .m         0.1524               :STEP DEPTH
STOP  .m         2928.7504            :STOP DEPTH
NULL  .          -999.25              :NULL VALUE
COMP  .                               :COMPANY
WELL  .          22/15-3              :WELL
LOC   .                               :LOCATION - AREA
FLD   .          GBR_UNASSIGNED       :FIELD
CTRY  .          GBR                  :COUNTRY
DATE  .                               :WELL DATE
UWI   .          12000082036501                     :UWI
XWELL .m          614700.99            :X POS
YWELL .m          6383465.707          :Y POS
EDF   .          32.3088646176        :DERRICK FLOOR ELEVATION
#
#----------------------------------------------------------------------------
~CURVE INFORMATION
#MNEM.UNIT                                  : CURVE DESCRIPTION
#----------                                 -------------------------------
DEPT        .m                              : 1      DEPTH
GR          .API                            : 2      GR
V_Clay_all  .fract                          : 3      Volume
#
#----------------------------------------------------------------------------
~A          GR          V_Clay_all  
# ...
2224.9672   44.4684     0.4977      
2225.1196   39.0775     0.4066      
2225.272    36.3675     0.3609      
2225.4244   35.6441     0.3487      
2225.5768   39.637      0.4161      
2225.7292   42.2455     0.4601      
2225.8816   43.4616     0.4807      
2226.034    43.0758     0.4742      
2226.1864   42.2396     0.46        
2226.3388   43.9383     0.4887      
2226.4912   45.0234     0.5071      
2226.6436   45.3072     0.5119      
2226.796    41.4208     0.4462      
2226.9484   41.7014     0.451       
2227.1008   39.7484     0.418       
2227.2532   39.9221     0.4209      
2227.4056   38.5205     0.3972      
2227.558    38.6349     0.3992      
2227.7104   37.8435     0.3858      
2227.8628   37.0593     0.3726      
2228.0152   36.5751     0.3644      
2228.1676   36.6422     0.3655      
2228.32     35.7854     0.351       
2228.4724   34.876      0.3357      
2228.6248   35.8312     0.3518      
2228.7772   38.5178     0.3972      
2228.9296   40.1456     0.4247      
2229.082    40.5678     0.4318      
2229.2344   38.7232     0.4007      
2229.3868   37.775      0.3846      
2229.5392   38.629      0.3991      
2229.6916   38.6017     0.3986      
2229.844    41.5869     0.449       
2229.9964   40.8321     0.4363      
2230.1488   40.4501     0.4298      
2230.3012   38.0528     0.3893      
2230.4536   37.9978     0.3884      
2230.606    38.0012     0.3885      
2230.7584   34.3489     0.3268      
2230.9108   29.7841     0.2497      
2231.0632   27.9342     0.2184      
2231.2156   31.9752     0.2867      
2231.368    37.8063     0.3852      
2231.5204   41.2131     0.4427      
2231.6728   42.5069     0.4646      
2231.8252   42.328      0.4615      
2231.9776   42.7097     0.468       
2232.13     40.2235     0.426       
2232.2824   37.9763     0.388       
2232.4348   33.9703     0.3204      
2232.5872   31.8945     0.2853      
2232.7396   31.4412     0.2777      
2232.892    34.7503     0.3336      
2233.0444   39.9642     0.4216      
2233.1968   41.4617     0.4469      
2233.3492   41.8761     0.4539      
2233.5016   40.9839     0.4388      
2233.654    41.7536     0.4518      
2233.8064   42.2022     0.4594      
2233.9588   40.8947     0.4373      
2234.1112   40.6593     0.4334      
2234.2636   40.8585     0.4367      
2234.416    41.0454     0.4399      
2234.5684   44.0593     0.4908      
2234.7208   45.72       0.5188      
2234.8732   47.578      0.5502      
2235.0256   46.3331     0.5292      
2235.178    44.2069     0.4933      
2235.3304   43.4102     0.4798      
2235.4828   41.3195     0.4445      
2235.6352   42.4208     0.4631      
2235.7876   42.0643     0.4571      
2235.94     45.5029     0.5152      
2236.0924   42.2028     0.4594      
2236.2448   40.4951     0.4306      
2236.3972   36.9892     0.3714      
2236.5496   38.6377     0.3992      
2236.702    38.966      0.4048      
2236.8544   41.5723     0.4488      
2237.0068   43.4978     0.4813      
2237.1592   46.9294     0.5393      
2237.3116   45.1474     0.5092      
2237.464    45.2798     0.5114      
2237.6164   43.9574     0.4891      
2237.7688   46.8898     0.5386      
2237.9212   49.0004     0.5742      
2238.0736   50.7867     0.6044      
2238.226    47.8151     0.5542      
2238.3784   44.8771     0.5046      
2238.5308   42.7665     0.4689      
2238.6832   42.7691     0.469       
2238.8356   43.2257     0.4767      
2238.988    43.6434     0.4838      
2239.1404   43.7124     0.4849      
2239.2928   45.1199     0.5087      
2239.4452   43.3203     0.4783      
2239.5976   45.5338     0.5157      
2239.75     44.2313     0.4937      
2239.9024   44.2161     0.4934      
2240.0548   43.0758     0.4742      
2240.2072   41.5184     0.4479      
2240.3596   45.1808     0.5097      
2240.512    45.8415     0.5209      
2240.6644   46.0547     0.5245      
2240.8168   43.5844     0.4828      
2240.9692   41.5367     0.4482      
2241.1216   41.6134     0.4495      
2241.274    41.0917     0.4407      
2241.4264   35.5642     0.3473      
2241.5788   34.335      0.3265      
2241.7312   34.4792     0.329       
2241.8836   41.017      0.4394      
2242.036    41.7265     0.4514      
2242.1884   40.8076     0.4359      
2242.3408   41.7527     0.4518      
2242.4932   42.9957     0.4728      
2242.6456   41.799      0.4526      
2242.798    39.8971     0.4205      
2242.9504   38.8152     0.4022      
2243.1028   38.9494     0.4045      
2243.2552   40.2767     0.4269      
2243.4076   41.2084     0.4426      
2243.56     43.2602     0.4773      
2243.7124   42.434      0.4633      
2243.8648   44.3053     0.4949      
2244.0172   44.0625     0.4908      
2244.1696   45.4521     0.5143      
2244.322    41.7767     0.4522      
2244.4744   39.7247     0.4176      
2244.6268   37.875      0.3863      
2244.7792   39.3047     0.4105      
2244.9316   40.8746     0.437       
2245.084    41.3673     0.4453      
2245.2364   41.692      0.4508      
2245.3888   41.4255     0.4463      
2245.5412   42.7248     0.4682      
2245.6936   42.6916     0.4677      
2245.846    43.538      0.482       
2245.9984   45.0167     0.5069      
2246.1508   46.1582     0.5262      
2246.3032   44.27       0.4943      
2246.4556   43.0596     0.4739      
2246.608    43.6061     0.4831      
2246.7604   44.1301     0.492       
2246.9128   42.2359     0.46        
2247.0652   40.4888     0.4305      
2247.2176   39.8691     0.42        
2247.37     41.5164     0.4478      
2247.5224   40.7102     0.4342      
2247.6748   42.9528     0.4721      
2247.8272   41.6787     0.4506      
2247.9796   40.7241     0.4345      
2248.132    36.9331     0.3704      
2248.2844   35.4723     0.3458      
2248.4368   36.9022     0.3699      
2248.5892   37.6078     0.3818      
2248.7416   42.2106     0.4596      
2248.894    42.7138     0.4681      
2249.0464   45.6281     0.5173      
2249.1988   46.5353     0.5326      
2249.3512   48.1068     0.5591      
2249.5036   49.279      0.5789      
2249.656    47.6112     0.5508      
2249.8084   48.2597     0.5617      
2249.9608   46.913      0.539       
2250.1132   48.1758     0.5603      
2250.2656   47.1772     0.5434      
2250.418    46.5003     0.532       
2250.5704   45.0608     0.5077      
2250.7228   47.0656     0.5416      
2250.8752   48.4302     0.5646      
2251.0276   47.8365     0.5546      
2251.18     44.4092     0.4967      
2251.3324   45.0782     0.508       
2251.4848   44.8796     0.5046      
2251.6372   45.8618     0.5212      
2251.7896   43.4076     0.4798      
2251.942    43.1727     0.4758      
2252.0944   43.8676     0.4875      
2252.2468   44.0387     0.4904      
2252.3992   42.8417     0.4702      
2252.5516   40.8776     0.437       
2252.704    41.3826     0.4456      
2252.8564   42.4705     0.4639      
2253.0088   42.8268     0.47        
2253.1612   39.6777     0.4168      
2253.3136   38.3529     0.3944      
2253.466    34.7724     0.3339      
2253.6184   37.9968     0.3884      
2253.7708   39.4174     0.4124      
2253.9232   46.0881     0.525       
2254.0756   46.2131     0.5272      
2254.228    47.5219     0.5493      
2254.3804   45.4114     0.5136      
2254.5328   45.6169     0.5171      
2254.6852   44.5363     0.4988      
2254.8376   44.5834     0.4996      
2254.99     42.9815     0.4726      
2255.1424   43.7386     0.4854      
2255.2948   45.2141     0.5103      
2255.4472   46.7808     0.5367      
2255.5996   46.7498     0.5362      
2255.752    44.165      0.4926      
2255.9044   43.8834     0.4878      
2256.0568   46.1226     0.5256      
2256.2092   47.2563     0.5448      
2256.3616   47.6051     0.5507      
2256.514    45.3142     0.512       
2256.6664   48.0115     0.5575      
2256.8188   51.8248     0.6219      
2256.9712   55.6461     0.6865      
2257.1236   56.6884     0.7041      
2257.276    56.0202     0.6928      
2257.4284   55.8349     0.6897      
2257.5808   55.887      0.6905      
2257.7332   55.6123     0.6859      
2257.8856   54.5393     0.6678      
