#----------------------------------------------------------------------------
~VERSION INFORMATION
VERS.            2.0                  :CWLS LOG ASCII STANDARD -VERSION 2.0
WRAP.            NO                   :ONE LINE PER DEPTH STEP
#
#--------------------------------------------------------------------
~WELL INFORMATION
#MNEM .UNIT      DATA                 :DESCRIPTION OF MNEMONIC
#----------      ------------         -------------------------------
STRT  .m         902.1352             :START DEPTH
STEP  .m         0.1524               :STEP DEPTH
STOP  .m         2928.7504            :STOP DEPTH
NULL  .          -999.25              :NULL VALUE
COMP  .                               :COMPANY
WELL  .          22/15-3              :WELL
LOC   .                               :LOCATION - AREA
FLD   .          GBR_UNASSIGNED       :FIELD
CTRY  .          GBR                  :COUNTRY
DATE  .                               :WELL DATE
UWI   .          12000082036501                     :UWI
XWELL .m          614700.99            :X POS
YWELL .m          6383465.707          :Y POS
EDF   .          32.3088646176        :DERRICK FLOOR ELEVATION
#
#----------------------------------------------------------------------------
~CURVE INFORMATION
#MNEM.UNIT                                  : CURVE DESCRIPTION
#----------                                 -------------------------------
DEPT        .m                              : 1      DEPTH
GR          .API                            : 2      GR
V_Clay_all  .fract                          : 3      Volume
#
#----------------------------------------------------------------------------
~A          GR          V_Clay_all  
902.1352    30.4704     0.2613      
902.2876    30.8189     0.2672      
902.44      30.1844     0.2564      
902.5924    30.2714     0.2579      
902.7448    30.7941     0.2667      
902.8972    31.5157     0.2789      
903.0496    29.62       0.2469      
903.202     28.4003     0.2263      
903.3544    25.6997     0.1807      
903.5068    26.7451     0.1984      
903.6592    27.0172     0.203       
903.8116    27.7838     0.2159      
903.964     26.4938     0.1941      
904.1164    27.7689     0.2157      
904.2688    30.1387     0.2557      
904.4212    35.5234     0.3466      
904.5736    38.0709     0.3896      
904.726     39.9871     0.422       
904.8784    38.3944     0.3951      
905.0308    37.3734     0.3779      
905.1832    35.9566     0.3539      
905.3356    35.8067     0.3514      
905.488     34.3333     0.3265      
905.6404    31.812      0.2839      
905.7928    30.5924     0.2633      
905.9452    29.1451     0.2389      
906.0976    29.9162     0.2519      
906.25      27.5635     0.2122      
906.4024    26.4361     0.1931      
906.5548    25.2647     0.1734      
906.7072    23.857      0.1496      
906.8596    23.6992     0.1469      
907.012     23.5948     0.1452      
907.1644    25.7002     0.1807      
907.3168    26.8326     0.1998      
907.4692    27.3371     0.2084      
907.6216    27.792      0.216       
907.774     29.5131     0.2451      
907.9264    31.2734     0.2748      
908.0788    32.3867     0.2936      
908.2312    33.9222     0.3196      
908.3836    34.5318     0.3299      
908.536     34.8801     0.3358      
908.6884    31.1876     0.2734      
908.8408    30.3164     0.2587      
908.9932    28.3822     0.226       
909.1456    28.4693     0.2275      
909.298     28.0334     0.2201      
909.4504    26.0482     0.1866      
909.6028    26.1091     0.1876      
909.7552    24.9765     0.1685      
909.9076    27.156      0.2053      
910.06      31.1026     0.272       
910.2124    33.3674     0.3102      
910.3648    35.9797     0.3543      
910.5172    34.7364     0.3333      
910.6696    33.6907     0.3157      
910.822     31.7736     0.2833      
910.9744    29.0698     0.2376      
911.1268    27.1536     0.2053      
911.2792    25.8467     0.1832      
911.4316    23.5213     0.1439      
911.584     22.9991     0.1351      
911.7364    23.6967     0.1469      
911.8888    27.3294     0.2082      
912.0412    29.5944     0.2465      
912.1936    32.9126     0.3025      
912.346     35.5525     0.3471      
912.4984    36.4228     0.3618      
912.6508    34.0614     0.3219      
912.8032    31.5356     0.2793      
912.9556    30.4036     0.2602      
913.108     29.9225     0.252       
913.2604    29.7485     0.2491      
913.4128    30.0099     0.2535      
913.5652    28.1217     0.2216      
913.7176    26.118      0.1878      
913.87      24.4638     0.1598      
914.0224    24.2187     0.1557      
914.1748    25.4398     0.1763      
914.3272    29.1084     0.2383      
914.4796    32.3303     0.2927      
914.632     33.2874     0.3089      
914.7844    33.081      0.3054      
914.9368    32.7536     0.2998      
915.0892    32.1242     0.2892      
915.2416    30.7534     0.2661      
915.394     29.3384     0.2422      
915.5464    28.3995     0.2263      
915.6988    27.2718     0.2073      
915.8512    26.8486     0.2001      
916.0036    29.3102     0.2417      
916.156     27.4614     0.2105      
916.3084    30.4986     0.2618      
916.4608    29.419      0.2435      
916.6132    33.5054     0.3125      
916.7656    31.8482     0.2845      
916.918     29.4175     0.2435      
917.0704    26.3397     0.1915      
917.2228    25.4698     0.1768      
917.3752    27.2841     0.2075      
917.5276    28.0525     0.2204      
917.68      29.2683     0.241       
917.8324    27.8772     0.2175      
917.9848    27.9645     0.219       
918.1372    26.5552     0.1952      
918.2896    27.0949     0.2043      
918.442     28.9931     0.2363      
918.5944    29.7076     0.2484      
918.7468    29.9685     0.2528      
918.8992    26.6402     0.1966      
919.0516    25.4217     0.176       
919.204     24.8127     0.1657      
919.3564    27.0065     0.2028      
919.5088    24.393      0.1586      
919.6612    24.8841     0.1669      
919.8136    25.8436     0.1831      
919.966     30.9827     0.2699      
920.1184    31.4495     0.2778      
920.2708    31.0129     0.2704      
920.4232    28.5573     0.229       
920.5756    29.6919     0.2481      
920.728     32.3068     0.2923      
920.8804    34.8472     0.3352      
921.0328    33.1887     0.3072      
921.1852    28.992      0.2363      
921.3376    26.4667     0.1937      
921.49      24.4661     0.1599      
921.6424    24.5675     0.1616      
921.7948    26.9239     0.2014      
921.9472    31.5141     0.2789      
922.0996    31.5141     0.2789      
922.252     29.7698     0.2494      
922.4044    28.747      0.2322      
922.5568    27.0912     0.2042      
922.7092    25.6095     0.1792      
922.8616    22.4205     0.1253      
923.014     25.3856     0.1754      
923.1664    26.8645     0.2004      
923.3188    27.2679     0.2072      
923.4712    26.1168     0.1878      
923.6236    28.0334     0.2201      
923.776     27.9459     0.2186      
923.9284    27.2662     0.2072      
924.0808    25.177      0.1719      
924.2332    26.902      0.201       
924.3856    27.1803     0.2057      
924.538     26.7262     0.198       
924.6904    25.613      0.1792      
924.8428    25.6826     0.1804      
924.9952    26.3104     0.191       
925.1476    26.658      0.1969      
925.3       26.1171     0.1878      
925.4524    24.8277     0.166       
925.6048    25.2309     0.1728      
925.7572    24.0983     0.1537      
925.9096    22.6164     0.1286      
926.062     22.5446     0.1274      
926.2144    22.7339     0.1306      
926.3668    23.196      0.1384      
926.5192    22.9352     0.134       
926.6716    24.1579     0.1547      
926.824     26.2927     0.1907      
926.9764    25.785      0.1821      
927.1288    22.4714     0.1262      
927.2812    20.5453     0.0937      
927.4336    21.6997     0.1132      
927.586     25.867      0.1835      
927.7384    29.8854     0.2514      
927.8908    31.6047     0.2804      
928.0432    31.5534     0.2796      
928.1956    32.686      0.2987      
928.348     32.0761     0.2884      
928.5004    32.5821     0.2969      
928.6528    29.5309     0.2454      
928.8052    28.9897     0.2363      
928.9576    28.2934     0.2245      
929.11      28.1198     0.2216      
929.2624    28.4004     0.2263      
929.4148    27.379      0.2091      
929.5672    27.4676     0.2106      
929.7196    25.3767     0.1753      
929.872     26.9919     0.2025      
930.0244    28.5986     0.2297      
930.1768    31.5565     0.2796      
930.3292    31.7296     0.2825      
930.4816    29.8613     0.251       
930.634     31.6908     0.2819      
930.7864    31.3624     0.2763      
930.9388    33.6275     0.3146      
931.0912    31.1861     0.2734      
931.2436    30.6634     0.2645      
931.396     28.5546     0.2289      
931.5484    28.1208     0.2216      
931.7008    28.9059     0.2349      
931.8532    29.1845     0.2396      
932.0056    27.437      0.21        
932.158     25.0899     0.1704      
932.3104    27.7975     0.2161      
932.4628    30.3892     0.2599      
932.6152    32.648      0.2981      
932.7676    31.2517     0.2745      
932.92      30.5784     0.2631      
933.0724    32.6692     0.2984      
933.2248    32.6692     0.2984      
933.3772    34.066      0.322       
933.5296    34.9145     0.3363      
933.682     38.2286     0.3923      
933.8344    40.3993     0.429       
933.9868    39.092      0.4069      
934.1392    38.9177     0.4039      
934.2916    37.6119     0.3819      
934.444     38.0705     0.3896      
934.5964    37.6334     0.3823      
934.7488    36.9366     0.3705      
934.9012    36.5716     0.3643      
935.0536    35.0897     0.3393      
